No.,pref.,add.,name,use,fl_num_gr,fl_num_ungr,num_elev,gros_fl.area,date_nintei,latitude,longitude,LocationInfo
1,kC,kCsa129-123,a^EvU`,iX,1,-,2,-,20011019,41.819517,140.741186,00001B00000000030B7C6F26A7DD7FC0
2,kC,kCsa129-8,jNa^EvUX,iX,1,-,-,-,20011019,41.81901,140.74089,00001B00000000030B7C6626A7D87FC0
3,kC,kCsL5-14,ANX\X,XEE,5,1,1,-,20021017,41.76383,140.71811,00001B00000000030B7884A6A63DFFC0
4,kC,kCs7-21,a@,a@,7,1,5,-,20030306,41.78549,140.74113,00001B00000000030B7A0AA6A7DC7FC0
5,kC,kCs511,`^[~ir,`q^[~i,3,-,2,-,20051020,41.77367,140.81056,00001B00000000030B793626ACBE7FC0
6,kC,kCsTc{66-5,}_d@ebNhX,iX,3,-,1,-,20020815,41.80586,140.73485,00001B00000000030B7B7926A76B7FC0
7,kC,kCs`12-1,|[X^[VbsOZ^[,iX,2,-,4,-,20070829,41.80174,140.73189,00001B00000000030B7B2F26A7367FC0
8,kC,kCsb221-15,R[vX,iX,1,-,-,-,20070612,41.80723,140.76328,00001B00000000030B7B9226A96B7FC0
9,kC,kCs226-6,}bNXoX,iX,2,-,1,-,20080305,41.84163,140.73697,00001B00000000030B7DFD26A7917FC0
10,kC,kCsx4-5,}bNXoxX,iX,1,-,-,-,20080526,41.77724,140.74059,00001B00000000030B797626A7D2FFC0
11,kC,kCsq263-1,X[p[A[NXqX,iX,1,-,-,-,20081016,41.779142,140.801112,00001B00000000030B7998A6AC147FC0
12,kC,kCs11-31,X[p[A[NXX,iX,1,-,-,-,20141112,41.78001,140.73605,00001B00000000030B79A826A780FFC0
13,kC,kCMsz`11-5,ECOxCM,{,12,1,96,-,19990223,43.18454,141.02139,00001B00000000030BDC69A6BB917FC0
14,kC,kCMsLy3-1,M,V,2,1,2,-,20020312,43.18826,141.01059,00001B00000000030BDCACA6BACEFFC0
15,kC,kCMs121-5,a@ERLVlz[,a@ELVlz[,5,-,5,-,20141222,43.173452,141.055,00001B00000000030BDBA226BDEE7FC0
16,kC,kCsU,DCMz[}bN@tX,}[PbgicX,1,-,0,8409,20050214,43.79515,142.377726,00001B00000000030C0758A71AEF7FC0
17,kC,kCs,Vl{@X,Vl{,2,-,1,4611.59,20020911,43.773142,142.432104,00001B00000000030C05CCA71EC1FFC0
18,kC,kCsSPU,@l@a@,a@,5,1,3,4402.54,19980724,43.764931,142.373742,00001B00000000030C0538A71AA77FC0
19,kC,kCs417n345,fCT[rXZ^[,Vl{,1,-,0,-,20030626,42.376788,140.998233,00001B00000000030BA39E26B9F07FC0
20,kC,kCs417n1168,tH[Xg,Vl{,1,-,0,-,20030626,42.3782,140.99922,00001B00000000030BA3B7A6BA01FFC0
21,kC,kCs{114-3,GA,X,2,-,2,-,20060912,42.35217,141.011023,00001B00000000030BA1E326BAD67FC0
22,kC,kCs{114-1,GB,X,1,-,0,-,20060914,42.35217,141.011023,00001B00000000030BA1E326BAD67FC0
23,kC,kCs{114-1,GC,X,1,-,0,-,20060914,42.35217,141.011023,00001B00000000030BA1E326BAD67FC0
24,kC,kCs{114-1,GA,X,1,-,0,-,20060921,42.35217,141.011023,00001B00000000030BA1E326BAD67FC0
25,kC,kCs{114-1,GA,X,1,-,0,-,20060921,42.35217,141.011023,00001B00000000030BA1E326BAD67FC0
26,kC,kCs123,R[vX,X,1,-,0,-,20080606,42.34811,141.03316,00001B00000000030BA199A6BC64FFC0
27,kC,kCLsc810|112|12,X|[cf|,icX,1,-,-,-,20131226,42.890394,143.199827,00001B00000000030BC7BB2754BCFFC0
28,kC,kCLsQQQPO|PP,100{g,icX,2,-,2,-,20140319,42.91832,143.131573,00001B00000000030BC9B1A74FF07FC0
29,kC,kCLs628-2啷28-3,z[}bN,icX,1,-,-,-,20091214,42.899457,143.176623,00001B00000000030BC85E27531B7FC0
30,kC,kCLsc99-111-1,z[}bN,icX,2,-,2,-,20040318,42.887095,143.19866,00001B00000000030BC77FA754A7FFC0
31,kC,kCLscWPO\P啷PQ|P,Cg[[Jh[,icX,4,-,7,-,19970919,42.889982,143.198095,00001B00000000030BC7B3A7549DFFC0
32,kC,kCLsQPSP,hLz[e,icX,5,-,7,-,19970215,42.9119,143.1438,00001B00000000030BC93E2750CC7FC0
33,kC,kC]sK35-1,]TeB,iX堀f,5,-,14,-,19961125,43.096978,141.533645,00001B00000000030BD641A6DF95FFC0
34,kC,kC]sy821-1,{Vlz[z[,fCT[rXZ^[i{Vlz[j,4,-,-,-,19981022,43.107546,141.512437,00001B00000000030BD6FFA6DE17FFC0
35,kC,kC]sy821-1,Fa@,a@,4,1,3,-,20010402,43.108577,141.512195,00001B00000000030BD71226DE13FFC0
36,kC,kC]sy{34-15,y{rbOnEX,iX,1,-,2,-,20050413,43.088122,141.53348,00001B00000000030BD5A226DF92FFC0
37,kC,kC]s]780-2,z[}bNX[p[f|]X,iX,1,-,-,-,20070117,43.11404,141.52493,00001B00000000030BD774A6DEF8FFC0
38,kC,kC]s]442-1,]VbsOZ^[K,iX,1,-,-,-,20090327,43.10073,141.547339,00001B00000000030BD68526E08C7FC0
39,kC,kC]sK22-1,Ja@,a@,6,1,4,-,20121126,43.100975,141.535655,00001B00000000030BD689A6DFB9FFC0
40,kC,kCO}sZ114-1,Oy,{Vlz[,2,-,2,-,19960502,43.254002,141.904108,00001B00000000030BE14C26F9A1FFC0
41,kC,kCO}sR1059-1,O}CIVbsOZ^[,iX,1,-,-,-,20050311,43.24423,141.80502,00001B00000000030BE09C26F2AA7FC0
42,kC,kCbs817n18,w@[h,HX,1,-,-,-,20050809,42.89798,141.58612,00001B00000000030BC843A6E3467FC0
43,kC,kCx28-4,xZ^[@,Z^[fCT[rXZ^[W辚j,2,-,1,-,20030529,43.45562,142.46855,00001B00000000030BEF79272151FFC0
44,kC,kCSh169-1-3-4-9-10-11-12-13170-1-2171-1-2,LUCKY@X,SX}[Pbg,1,-,1,-,20080819,42.979784,140.518797,00001B00000000030BCE0426983A7FC0
45,kC,kCBsiWPO@@@,CIBX@@@@@@@@@@@@@@,iX,2,-,1,11158.22,19980908,42.473537,140.862524,00001B00000000030BAA6BA6B0657FC0
46,kC,kCES{TPVnP,Z^[EE@,W,3,-,1,-,20030716,42.872324,141.812703,00001B00000000030BC675A6F334FFC0
47,kC,kCosQRP|RRR|TPOO[RVPOO[RW,z[}bNX,X,1,-,-,-,20041019,42.37189,141.060102,00001B00000000030BA34626BE49FFC0
48,kC,kCVSVk3n,V,,4,-,1,-,19970827,42.362417,142.318315,00001B00000000030BA29BA716C1FFC0
49,kC,kCSVL22-1,CIX,iX,2,-,2,-,19980722,42.34303,142.3564,00001B00000000030BA13EA7196F7FC0
50,kC,kCS{35n-1,Z^[,W,3,1,1,-,19980731,42.585717,142.13435,00001B00000000030BB24EA709D27FC0
51,kC,kCVSV13-14,{,{,1,-,-,-,19990402,42.358942,142.319057,00001B00000000030BA25CA716CF7FC0
52,kC,kCS15657,X,X,1,-,-,-,20020709,42.425872,142.223773,00001B00000000030BA711A7101BFFC0
53,kC,kCSV11-69,}bNXoX,iX,1,-,-,-,20030320,42.34097,142.35692,00001B00000000030BA119271978FFC0
54,kC,kCSV1186,z[}bNX,iX,1,-,-,-,20030707,42.34207,142.35745,00001B00000000030BA12D2719827FC0
55,kC,kCklsvQQWP,R[v@X,iX,1,-,-,-,20050418,41.82554,140.66756,00001B00000000030B7CDBA6A2B07FC0
56,kC,kCS{QQS|P,{,W,2,-,1,-,20020725,42.053577,140.805292,00001B00000000030B8CE426AC5F7FC0
57,kC,kCklsdlSSSP,_CG[X,iX,1,-,-,-,20020822,41.82268,140.7101,00001B00000000030B7CA826A5ADFFC0
58,kC,kCkls199|1,PAnEX,fCT[rXZ^[,1,-,-,-,20000508,41.8548,140.61174,00001B00000000030B7EEA269EC37FC0
59,kC,kCSmd31|130,mEZ^[,Z^[Ef,1,-,-,-,19990304,41.601348,140.420118,00001B00000000030B6D1826914A7FC0
60,kC,kCCS_F324|202|213,@FfBT[rXZ^[,VlZ^[,1,-,-,-,19960718,42.12887,140.000227,00001B00000000030B922FA673C47FC0
61,kC,kCCS_F329-1,_,O,1,1,1,-,19980613,42.135978,140.00589,00001B00000000030B92AFA6742A7FC0
62,kC,kCsc67-1-3-4-6-1068-3-8-969-273-574-17576-177-178-1-27980-1-3-4-581-1,CIX,iX,2,-,4,-,20080325,44.338781,142.451983,00001B00000000030C2D92272027FFC0
63,kC,kCQQQQ|URUOTQQP|P,O[p[NOgC,OgC,1,-,-,-,20060801,43.696574,142.500785,00001B00000000030C006A2723967FC0
64,kC,kC10k34n,n_OgC,OgC,1,-,-,-,20081010,43.737336,142.498641,00001B00000000030C034827236FFFC0
65,kC,kCmJi,xOgC,OgC,1,-,-,-,20090707,43.664077,142.660056,00001B00000000030BFE21272EC97FC0
66,kC,kCS2354-1啷-4,OnnZ^[iOnR~jeBZ^[j,W,1,-,-,-,20100713,-,-,-
67,kC,kCS404-15M,wZEnZ^[i{j,wZ,2,-,-,-,20140909,43.698916,142.507721,00001B00000000030C0094272412FFC0
68,kC,kCGs\PPPO,GsZ^[@[,{{,2,-,1,-,19980331,43.93538,141.66429,00001B00000000030C1134A6E8C57FC0
69,kC,kCOSOOPPX|PPQSSQPnhlVT|PVT|QVT|Rn,,ze,2,-,2,1999.2.8@2000.3.28iXFj,20000328,44.31315,141.656409,00001B00000000030C2BC4A6E8377FC0
70,kC,kCGs_QPUnP,Gsa@,a@,6,-,4,-,20010309,43.93073,141.67804,00001B00000000030C10E126E9BCFFC0
71,kC,kCtsJ^QSQ啷SU,ttF[^[~ir,,2,-,3,-,20080220,45.415365,141.68298,00001B00000000030C7944A6EA15FFC0
72,kC,kC}KS}K{376-2,}KO,O,1,-,-,-,20020314,44.9397,142.58372,00001B00000000030C57D2A7296AFFC0
73,kC,kCtst54067-5131539,{Vlz[t,{Vlz[,1,-,-,-,20050914,45.397647,141.760691,00001B00000000030C7805A6EF8C7FC0
74,kC,kCts51483-7674啷77啷V1483-1110,VeBtX,icX,1,-,-,-,20050520,45.385918,141.700426,00001B00000000030C7732A6EB4FFFC0
75,kC,kCtsV1483-9啷1483-75,z[}bNtX,icX,1,-,-,-,20050805,45.385242,141.697901,00001B00000000030C772626EB227FC0
76,kC,kCts32185-5-6-7-10-162183-114,P[YfLtpt,iX,1,-,-,-,20061127,45.382109,141.709142,00001B00000000030C76EDA6EBECFFC0
77,kC,kCtsxm41487,NiZ^[tuv,VlZ^[,1,1,1,-,19960124,45.41994,141.63803,00001B00000000030C7996A6E6ECFFC0
78,kC,kC}KS}Kh301|1,}KX,iX,1,-,-,-,19971001,44.93827,142.57803,00001B00000000030C57B8A72904FFC0
79,kC,kCSy138-1,yx,EW,2,-,1,-,19960423,43.886615,143.192908,00001B00000000030C0DC72754407FC0
80,kC,kCCSPq{gUXnPPP,VlfCT[rXZ^[@yVlz[@PAnEX,fCT[rXZ^[yPAnEX,1,-,0,-,19970425,43.726322,143.750971,00001B00000000030C0281A77B7D7FC0
81,kC,kCCSC{OPTQnU,PAnEXTK[f,PAnEXEfCT[rXZ^[,2,-,2,-,19970625,44.014429,143.773797,00001B00000000030C16C3A77D187FC0
82,kC,kCSPQn,R~jeBZ^[,W,2,-,1,-,19980409,43.83911,144.596123,00001B00000000030C0A6FA7B6EA7FC0
83,kC,kCslVQQ|P,TCYEsg,fCT[rXZ^[,1,-,0,-,19980518,43.98322,144.20749,00001B00000000030C1491A79B96FFC0
84,kC,kCS26n,,O,1,-,-,-,19980803,43.720299,144.506038,00001B00000000030C021527B094FFC0
85,kC,kCSH35n35,Z^[,Vl{荪f{,2,1,1,-,19981006,43.830261,144.592946,00001B00000000030C09D0A7B6B17FC0
86,kC,kCSy374375376377n,Z^[,fCT[rXZ^[({),1,-,0,-,19981207,43.874519,143.166057,00001B00000000030C0CED27525D7FC0
87,kC,kCSy1k11n,yZ^[,fCT[rXZ^[EZ^[,2,-,1,-,19990709,44.058867,143.525728,00001B00000000030C19E3A76BA77FC0
88,kC,kCSy744n1743n1,{,W,1,-,0,-,19990920,43.885721,143.184195,00001B00000000030C0DB6A753A3FFC0
89,kC,kCSyQRW|Q,@l@ba@Vl{@AjeBy,a@iVl{j,3,1,2,-,20020731,43.83236,144.10632,00001B00000000030C09F6279479FFC0
90,kC,kCSy3k2Pn,yZ^[vU,据腊,3,-,1,-,20030829,43.82394,144.10814,00001B00000000030C095EA7949AFFC0
91,kC,kCsPTR|P,@lc@N@a@,a@,5,-,4,-,20050303,43.99078,144.26678,00001B00000000030C151A279FC27FC0
92,kC,kCsKR,s,,2,-,-,-,20120322,44.35572,143.3532,00001B00000000030C2EC2A75F85FFC0
93,kC,kCsKV,Z^[u[QPv,{,2,1,1,-,20120913,44.348854,143.351643,00001B00000000030C2E47275F69FFC0
94,kC,kCSyVPV|Q,X[p[A[NXyX,icX,1,-,0,-,20130906,43.83263,144.11011,00001B00000000030C09FB2794BDFFC0
95,kC,kCSWJ^42,WZ^[,Z^[,3,1,1,-,19970808,43.300024,144.59793,00001B00000000030BE48827B70AFFC0
96,kC,kCS53,,}E,1,-,-,-,19980609,43.228565,144.326018,00001B00000000030BDF8227A3EC7FC0
97,kC,kCSqq41960,sAEtB[h@j,ze,1,-,-,-,19990308,43.52758,144.48383,00001B00000000030BF48827AF04FFC0
98,kC,kCSZ]12,Z^[21,Z^[,2,-,1,-,19990621,43.056773,144.846224,00001B00000000030BD36DA7C8807FC0
99,kC,kCHsa4-18-1,CI[Ha,iX,2,-,8,-,20000911,43.02512,144.35843,00001B00000000030BD13427A633FFC0
100,kC,kCHs2-97-1,sHNf.,f,1,-,-,-,20000719,42.894194,143.930155,00001B00000000030BC7FF278816FFC0
101,kC,kCHSHz1-1-1,HZ^[@[,{,2,-,1,-,20020522,42.99694,144.43547,00001B00000000030BCF38A7AB9E7FC0
102,kC,kCHSH223,DMCz[}bNX,iX,1,-,-,-,20030203,43.00886,144.4097,00001B00000000030BD00F27A9CEFFC0
103,kC,kCHSH32n,RNeBuZ^[,W,1,-,-,-,20051011,43.03555,144.45494,00001B00000000030BD1EFA7ACFCFFC0
104,X,XXs24PQPQPR,zei`kbhsxX,ze,9,-,2,-,19960820,40.827552,140.740537,00001B00000000030B36AFA6A7D1FFC0
105,X,XXs11n,jo[XX,icX,1,-,-,-,19961111,40.83226,140.72462,00001B00000000030B3704A6A6B37FC0
106,X,XXsVQ|RQ|SQTQU,mMsXxX,s,2,-,-,-,19980821,40.826177,140.740282,00001B00000000030B369726A7CD7FC0
107,X,XXsuJ341-19啷341-20,w,W辚Otxe{,5,-,2,-,19981028,40.891714,140.861357,00001B00000000030B3B32A6B0507FC0
108,X,XXs1PR|P,jo[XXizj,icX,1,-,-,-,19990707,40.83381,140.72701,00001B00000000030B3720A6A6DE7FC0
109,X,XXsVP|R`TTS|P`RO,XwOnsXnJr,}tX,9,1,4,-,19990803,40.827268,140.735899,00001B00000000030B36AAA6A77E7FC0
110,X,XXslcLc82-327M,Cg[[Jh[XX@Xs,X,5,-,4,-,19990121,40.800817,140.749043,00001B00000000030B34CEA6A86AFFC0
111,X,XXs]ODSWO,nCp[[WCVeB[VzHa,icX,3,-,1,-,20000508,40.833036,140.702626,00001B00000000030B3712A6A5277FC0
112,X,XXs]ODSWO,nCp[[WCVeB[VzH`,icX,3,-,4,-,20000601,40.833036,140.702626,00001B00000000030B3712A6A5277FC0
113,X,XXs]ODPWO,Ri[h,f佶O辚p`RHX,4,1,1,-,20010213,40.834885,140.702501,00001B00000000030B3733A6A5257FC0
114,X,XXslST|P,sZ^[^,,1,-,-,-,20010214,40.90675,140.66933,00001B00000000030B3C41A6A2CFFFC0
115,X,XXsY131,XsX|[c,X|[cK,3,1,1,-,20010904,40.82901,140.77284,00001B00000000030B36CA26AA177FC0
116,X,XXscXV|QXX|QUPOS|PQRS,}_d@XX,icX,3,-,1,-,20020412,40.79375,140.75874,00001B00000000030B344FA6A9197FC0
117,X,XXsVPUR|QQO,sZ^[,sZ^[,3,-,1,-,20020604,40.826631,140.67799,00001B00000000030B369F26A36BFFC0
118,X,XXsc~cPU|Q,jo[XXX,X,2,-,2,-,20020913,40.811151,140.782641,00001B00000000030B3588A6AAC7FFC0
119,X,XXsc~cPU|Q,z[}bNXX,icX,1,-,-,-,20020913,40.812057,140.784168,00001B00000000030B359926AAE37FC0
120,X,XXsORRWP|RVT,iLjPC[h,H,1,-,-,-,20051227,40.80021,140.70132,00001B00000000030B34C3A6A50FFFC0
121,X,XXsP|QSO,@EbZ,W辚W辚HXX堀,3,1,2,-,20090319,40.82962,140.735908,00001B00000000030B36D526A77E7FC0
122,X,XXsVcERU|PO,P[YfLXX,icX,2,-,1,-,20140116,40.832512,140.692721,00001B00000000030B370926A474FFC0
123,X,OOsPO|P ,jo[XX,icX,1,-,0,-,19981119,40.59223,140.48706,00001B00000000030B26242695FF7FC0
124,X,OOsS|QO,CI^EVbsOZ^[,icX,1,-,0,-,20021213,40.576078,140.493402,00001B00000000030B25012696717FC0
125,X,OOscl,OO^EvU,icX,3,-,7,-,20030403,40.603459,140.514768,00001B00000000030B26EE2697F1FFC0
126,X,OOsX|U,CI^EOO,icX,1,-,0,-,20061124,40.60213,140.44534,00001B00000000030B26D62693107FC0
127,X,OOs1-16,wZ@lcwkqw,w,5,-,1,-,20090625,40.5816,140.48511,00001B00000000030B2564A695DBFFC0
128,X,XsQ11,}bNXo[X,X[p[}[Pbg,1,-,0,-,19970509,40.51918,141.48509,00001B00000000030B210126DC2BFFC0
129,X,sS7-111,VbsOZ^[sAhD,icX,3,-,2,-,19980206,40.52607,141.49776,00001B00000000030B217D26DD0FFFC0
130,X,sQ9-5,jo[XX,X[p[}[Pbg,1,-,0,-,19971111,40.50262,141.50644,00001B00000000030B1FD726DDABFFC0
131,X,skRT1-7,jo[Xj[^EX,X[p[}[Pbg,1,-,0,-,19991018,40.48699,141.46536,00001B00000000030B1EBDA6DAC87FC0
132,X,sS7-108,X[p[K@y@sAhDX@isAhD{j,O,2,-,1,-,20021209,40.526,141.49829,00001B00000000030B217C26DD197FC0
133,X,sS7-110,gCUXExr[UXX@isAhD{j,icX,2,-,1,-,20020927,40.52604,141.49791,00001B00000000030B217CA6DD127FC0
134,X,sS1-86,}_d@ebNhX@isAhD{j,icX,3,-,1,-,20020927,40.52699,141.49297,00001B00000000030B218DA6DCB97FC0
135,X,s]zQ1-32,N[o[YsAfCT[rXZ^[,fCT[rXtZ,4,-,2,-,20070521,40.51879,141.49873,00001B00000000030B20FA26DD217FC0
136,X,sRP,sZ^[@,,2,-,1,-,20080908,40.475594,141.4884,00001B00000000030B1DF0A6DC677FC0
137,X,sc27-1,CIcX,icX,1,-,0,-,20111221,40.49273,141.51012,00001B00000000030B1F2526DDEE7FC0
138,X,Xs2n,}bNXoX,}[PbgicX,2,-,-,-,20021206,40.64511,140.60176,00001B00000000030B29DBA69E0FFFC0
139,X,XySkkOc27n,}bNXoX,}[PbgicX,2,-,-,-,20040524,40.52287,140.567622,00001B00000000030B2143A69BA97FC0
140,X,XsaX193-1,}bNXoX,}[PbgicX,1,-,-,-,20080523,40.591249,140.566245,00001B00000000030B2612269B907FC0
141,X,XOQKi43|370,jo[XKX,iX,1,-,-,-,20020522,40.45545,141.62009,00001B00000000030B1C8626E5A9FFC0
142,X,XOQOc18|1,CI^EOVbsOZ^[X,XipiXj,1,-,-,-,20030918,40.396882,141.263277,00001B00000000030B1867A6CC92FFC0
143,X,XOQOc18|1,CI^EOVbsOZ^[,iX,2,-,-,-,20030918,40.396882,141.263277,00001B00000000030B1867A6CC92FFC0
144,X,XOQOc18|14,Tf[OX,iX,1,-,-,-,20030918,40.396541,141.263563,00001B00000000030B1861A6CC987FC0
145,X,5-807-2,LVlz[EvU,LVlz[EfCT[rXZ^[,2,-,1,-,20040225,40.523872,141.293695,00001B00000000030B2155A6CEB6FFC0
146,X,s}517-1@,GXVbsOZ^[,iX,2,-,18,-,19961018,40.798726,140.453986,00001B00000000030B34A92693ABFFC0
147,X,s41-1`120,CIVbsOZ^[{,isXy{[O,2,-,20,-,19970314,40.802581,140.416937,00001B00000000030B34EE269110FFC0
148,X,s105120162164`166,CIVbsOZ^[Hi,isX,1,-,-,-,19970314,40.802581,140.416937,00001B00000000030B34EE269110FFC0
149,X,sR395-5360-1360-2361-1361-2361-3362-1363-1363-2,fR[h[X,isX,1,-,-,-,19980806,40.800166,140.418226,00001B00000000030B34C2A691287FC0
150,X,s}517-1,GXVbsOZ^[,isX,3,-,18,-,20031020,40.80025,140.4529,00001B00000000030B34C4A693987FC0
151,X,D266-1267-3267-1268-1269-1270-1,}bNXoX,isX,1,-,-,-,20041119,40.706548,140.455077,00001B00000000030B2E2DA693BF7FC0
152,X,XkScJn14-196M,cVbsOZ^[,icX,3,-,15,-,19950324,35.558552,139.632328,00001B000000000309C435A659E5FFC0
153,X,X\acsO{4251426-1427-2428-1,X[p[JPX,icX,2,-,0,-,19970515,40.605106,141.188881,00001B00000000030B270BA6C757FFC0
154,X,XkScJn14-196M,cVbsOZ^[({z),icX,3,-,15,-,19980803,40.601457,141.417784,00001B00000000030B26CA26D7707FC0
155,X,XkScJn14-196M,cVbsOZ^[X|[cE100 ~Vbv,icX,3,-,15,-,19980803,40.601457,141.417784,00001B00000000030B26CA26D7707FC0
156,X,XkScJn14-196M,cVbsOZ^[TOHO Vl^E,f,3,-,18,-,20010330,40.601457,141.417784,00001B00000000030B26CA26D7707FC0
157,X,XkScJn14-196M,cVbsOZ^[TOHO Vl^E,f,3,-,18,-,20010427,40.601457,141.417784,00001B00000000030B26CA26D7707FC0
158,X,X\acs21-O,}bNXo\acX,icX,1,-,0,-,20020415,40.599289,141.227672,00001B00000000030B26A326CA127FC0
159,X,X\acs413-5,}bNXo\acX,icX,1,-,0,-,20021206,40.599136,141.227631,00001B00000000030B26A026CA117FC0
160,X,XkScJn14-196M,CIcVbsOZ^[,icX堀{[O辚VZ辚f,3,-,18,-,20031021,40.601457,141.417784,00001B00000000030B26CA26D7707FC0
161,X,XkScJn14-196M,CIcVbsOZ^[,icX,3,-,22,-,20040331,40.601457,141.417784,00001B00000000030B26CA26D7707FC0
162,X,X\acsZR145,CIX[p[Z^[\acX,icX,1,-,0,-,20050627,40.603008,141.257508,00001B00000000030B26E626CC2B7FC0
163,X,XOs12-1-2-4-8-9-10-11,}bNXo[OX,X[p[}[Pbg,1,-,0,-,20060403,40.677434,141.360486,00001B00000000030B2C21A6D368FFC0
164,X,XkSrF674035M,CI\acwOX,icX,1,-,0,-,20110810,40.718897,141.155339,00001B00000000030B2F0C26C4FC7FC0
165,,S46-3,w,wy{,2,-,1,-,19960705,39.68897,140.97533,00001B00000000030AE6A126B853FFC0
166,,BsOc85,CI@OX,icX,2,-,1,-,19961015,39.05199,141.13007,00001B00000000030AB9D7A6C3357FC0
167,,gSgklmV71-1,}bNXo@gX,icX,1,-,-,-,19980709,39.536846,141.1701,00001B00000000030ADBEF26C605FFC0
168,,szKO7-1,s@sZ^[iUwKXe[Vj,}佶W,2,-,1,-,19981119,38.901546,141.264167,00001B00000000030AAF43A6CCA37FC0
169,,ks{2-2-1,cC[vUiEj,SXf佶{,9,-,11,-,19990610,39.28908,141.11591,00001B00000000030ACA8326C2367FC0
170,,Bsqc71-1,T[WlG,W,2,-,1,-,19990830,39.14541,141.1516,00001B00000000030AC06926C4B8FFC0
171,,sR56-1,Kl@RX,icX,1,-,-,-,20000218,38.93444,141.11588,00001B00000000030AB193A6C235FFC0
172,,Bsqm123,R[v@Aterui,icX,2,-,1,-,20020325,39.14824,141.156734,00001B00000000030AC09C26C5157FC0
173,,SX123-1,VbsOZ^[@CRI,icX,1,-,-,-,20050208,40.210442,141.305149,00001B00000000030B0B4BA6CF84FFC0
174,,_SPOKr165,CIX[p[Z^[@PX,icX,1,-,-,-,20040806,39.219547,141.10125,00001B00000000030AC59FA6C12EFFC0
175,,ks4n77,CI^E@k@(}bNXo[),icX,1,-,-,-,20041012,39.29472,141.13374,00001B00000000030ACAE8A6C3777FC0
176,,s`2-1-1,CI^E@,X,3,-,6,-,20130613,39.27127,141.87976,00001B00000000030AC942A6F7EBFFC0
177,,skR9-20,rbOnEXX,icX,1,-,-,-,20040426,39.71193,141.14835,00001B00000000030AE83EA6C47E7FC0
178,,suc12-50,}bNXoucX,icX,1,-,-,-,20040805,39.65771,141.15939,00001B00000000030AE46EA6C5457FC0
179,,sR16-8,xtR,icX,2,-,-,-,20050614,39.71452,141.16949,00001B00000000030AE86D26C5FAFFC0
180,,swOk11-1,}bNXowOkX,icX,1,-,-,-,20060309,39.70624,141.13208,00001B00000000030AE7D826C3597FC0
181,,s{{P|P,CI[欹CIX,icX,4,1,49iE35j,-,20060912,39.68366,141.128723,00001B00000000030AE641A6C31D7FC0
182,,sOlV|P,CI[CIX,icXE,2,1,-,-,20061025,39.71053,141.10106,00001B00000000030AE825A6C12B7FC0
183,,s11|15,Z^LVlz[@Aevh,h,3,-,1,-,20070607,39.74245,141.14905,00001B00000000030AEA6426C48AFFC0
184,,sRa20nP,CIX[p[Z^[aX,icX,1,-,-,-,20080404,39.849976,141.172806,00001B00000000030AF1F3A6C636FFC0
185,,sVc2nSU|R,}_d@ebNhN{X,icX,3,-,3,-,20081022,39.679145,141.134509,00001B00000000030AE5F0A6C3857FC0
186,,sO{TnTW,P[YfLX,icX,2,-,4iE2j,-,20101208,39.660302,141.162712,00001B00000000030AE49D26C580FFC0
187,,s16-90,X|[cf|X,icX,1,-,-,-,20130515,39.675986,141.136305,00001B00000000030AE5B7A6C3A57FC0
188,{,{osm3-1,WXRX,X,2,-,-,-,19941118,-,-,-
189,{,{sY3-11-4,[Nxj}YX,X,1,-,-,-,19950620,38.59115,140.96587,00001B00000000030A9970A6B7A9FFC0
190,{,{{gx184-1,VbsOvUn}_,X,1,-,-,-,19950628,38.78478,141.490565,00001B00000000030AA70E26DC8E7FC0
191,{,{s2-30,X,X,2,-,-,-,19950810,38.12368,140.87242,00001B00000000030A789226B117FFC0
192,{,{scVx313,Cg[[Jh[X,X,2,1,-,-,19950901,38.448269,141.273409,00001B00000000030A8F64A6CD497FC0
193,{,{osaZ55-1,a,,3,-,-,-,19951012,38.741779,141.316138,00001B00000000030AA40826D04A7FC0
194,{,{s{3-234-1,"WtB100X
",X,1,-,-,-,19951031,38.588356,140.953733,00001B00000000030A993E26B6CF7FC0
195,{,{scn,`q^[~i,^[~ir,4,-,-,-,19951218,38.138182,140.930192,00001B00000000030A799726B5277FC0
196,{,{pcspcK271,[Nxj}pcX,X,1,-,-,-,19960123,37.982824,140.780789,00001B00000000030A6EAAA6AAA67FC0
197,{,{oscX107-1,X,X,2,-,-,-,19960226,38.696856,141.211336,00001B00000000030AA0DF26C8EC7FC0
198,{,{s4-1-1,{,n,6,-,-,-,19960804,38.56659,140.97513,00001B00000000030A97B6A6B8507FC0
199,{,{scK4-1,cKXLbvZ^[,EE{,1,-,-,-,19960517,38.601562,141.029422,00001B00000000030A9A2C26BC21FFC0
200,{,{pcspcK271,Rp[pcX,z[Z^[,2,-,-,-,19960715,37.981921,140.780113,00001B00000000030A6E9AA6AA9A7FC0
201,{,{sO2-53-1,svU,{,3,-,-,-,19960805,38.57299,140.957302,00001B00000000030A9829A6B70F7FC0
202,{,{s1-8-2,X,X,2,-,-,-,19960910,38.44504,141.3085,00001B00000000030A8F2AA6CFC17FC0
203,{,{Cs2-52,CssZ^[,Vl{,3,-,-,-,19960927,-,-,-
204,{,{{XVq51,{tiGLTCja@,a@,4,-,-,-,19961015,38.33562,140.9881,00001B00000000030A877926B939FFC0
205,{,{s1-211-1,kj,,4,1,-,-,19961101,38.299455,140.994093,00001B00000000030A84EE26B9A5FFC0
206,{,{Ouc43,u,,2,-,-,-,19961205,-,-,-
207,{,{stTmqn,pbg,UwKZ^,2,-,-,-,19961205,38.565408,140.945865,00001B00000000030A97A126B641FFC0
208,{,{S90,[Nxj}VcX,X,1,-,-,-,19961227,38.577054,140.852071,00001B00000000030A9872A6AFA97FC0
209,{,{s3-89-3,ACpY,,3,-,-,-,19970501,38.57437,140.98352,00001B00000000030A9842A6B8E77FC0
210,{,{Csq44-180,CsP[EF[u,,3,1,-,-,19960828,38.87923,141.55276,00001B00000000030AADB226E0EDFFC0
211,{,{XRcsq75-1,pc,,2,-,-,-,19970526,-,-,-
212,{,{OJOJ]222,V,EO,2,1,-,-,19970812,38.539383,141.151367,00001B00000000030A95CCA6C4B4FFC0
213,{,{kYV15,}bNXo[cX,X,1,-,-,-,19970729,-,-,-
214,{,{CsV2-2-1,CsNZ^[,EW,2,-,-,-,19970819,38.90923,141.54848,00001B00000000030AAFCE26E0A0FFC0
215,{,{os]3-2-5,^JJcz[vXX,X,1,-,-,-,19970812,38.68203,141.18652,00001B00000000030A9FD4A6C72D7FC0
216,{,{xqJR25-6,{[gsA,OM,2,-,-,-,19971215,38.169317,140.669215,00001B00000000030A7BC7A6A2CDFFC0
217,{,{}sC194-6,Cz[Z^[X,X,1,-,-,-,19980114,38.317826,141.023744,00001B00000000030A8638A6BBBB7FC0
218,{,{Is186,UwKZ^[,,3,1,-,-,19980526,38.801341,141.065873,00001B00000000030AA83826BEB1FFC0
219,{,{kY58-1,tbv21ij,,2,-,-,-,19980511,38.42449,140.993264,00001B00000000030A8DB8A6B996FFC0
220,{,{s2-2-1,WXRX,X,2,-,-,-,19980407,38.568,140.97151,00001B00000000030A97D026B80F7FC0
221,{,{s|m279,dqoCpXX,X,1,-,-,-,19980904,38.57498,140.94512,00001B00000000030A984DA6B6347FC0
222,{,{sRLc11,RZ^[,{,1,-,-,-,19981030,38.515144,141.060515,00001B00000000030A9418A6BE517FC0
223,{,{cV194-1,"}bNXo[cX
",X,1,-,-,-,19981001,38.062258,140.795037,00001B00000000030A7440A6ABA6FFC0
224,{,{Cs6-1,WXRCX,X,2,-,-,-,19981030,38.88929,141.57294,00001B00000000030AAE6726E258FFC0
225,{,{37,tHe@,fE{[O,3,-,-,-,19981130,38.065627,140.738365,00001B00000000030A747D26A7AAFFC0
226,{,{sc{41,}bNXo[kX,X,1,-,-,-,19990402,38.52425,141.31122,00001B00000000030A94BCA6CFF1FFC0
227,{,{J126-4,sXnJ@I[K,X,4,1,-,-,19990806,38.04803,140.73946,00001B00000000030A7340A6A7BE7FC0
228,{,{~cY3-3,\sxX,sxX,2,-,-,-,19990830,38.09708,140.65768,00001B00000000030A76B326A1FE7FC0
229,{,{}s3-3-1,X,X,3,-,-,-,19991012,38.33252,141.03743,00001B00000000030A874126BCB1FFC0
230,{,{Cslc154,fC[|[gVNCX,X,1,-,-,-,20000218,38.901904,141.554494,00001B00000000030AAF4A26E10CFFC0
231,{,{Isvr22,"}bNXo[X
",X,1,-,-,-,20000302,38.825934,141.031353,00001B00000000030AA9F2A6BC447FC0
232,{,{{{VcO2-1,WXR{X,X,3,-,-,-,20000331,38.326506,140.972145,00001B00000000030A86D526B81AFFC0
233,{,{jGk100,"jX
",X,1,-,-,-,20000410,38.0416,140.87659,00001B00000000030A72CCA6B162FFC0
234,{,{s4-8-4,[Nxj}X,X,1,-,-,-,20000509,38.28815,140.98299,00001B00000000030A8422A6B8DDFFC0
235,{,{Iszrc41-150,,,2,-,1,-,20000613,38.720493,141.007189,00001B00000000030AA288A6BA917FC0
236,{,{stJn130,JCYz[X,X,1,-,-,-,20000621,38.560352,140.946364,00001B00000000030A974626B64AFFC0
237,{,{Isz{QT,Ia@,a@,5,-,5,-,20020131,38.746437,141.02003,00001B00000000030AA45BA6BB78FFC0
238,{,{Fl}n,a@,a@,4,-,4,-,20000920,38.551971,140.849112,00001B00000000030A96AF26AF747FC0
239,{,{Fl}n,Vl{,Vl{,2,-,2,-,20000920,38.55145,140.848467,00001B00000000030A96A626AF687FC0
240,{,{pcspcK253-2,pcsZ^[,{,2,-,-,-,20001020,37.982764,140.776925,00001B00000000030A6EA9A6AA60FFC0
241,{,{Is23-1,[Nxj}X,X,1,-,-,-,20001024,38.770256,141.121896,00001B00000000030AA608A6C2A27FC0
242,{,{cD|22-1,cVbsOvU,X,1,-,-,-,20010716,-,-,-
243,{,{s{253,`O,f,1,-,-,-,20020214,38.433919,141.258256,00001B00000000030A8E62A6CC38FFC0
244,{,{sqc130,[Nxj}X,X,1,-,-,-,20011227,-,-,-
245,{,{xJ6-1-18,X,X,1,-,-,-,20020405,38.34898,140.89272,00001B00000000030A8869A6B284FFC0
246,{,{sG289-1,[Nxj}X,X,1,-,-,-,20020521,38.10752,140.856799,00001B00000000030A776F26AFFE7FC0
247,{,{xJc2-1-3,Vl{@[uY,Vl{,2,-,1,-,20020828,38.3658,140.88603,00001B00000000030A899826B20CFFC0
248,{,{xJm128-1,JCYz[xJX,X,2,-,4,-,20020808,38.361937,140.876407,00001B00000000030A8952A6B15F7FC0
249,{,{s47,}UX,X,1,-,-,-,20021216,38.297851,140.991222,00001B00000000030A84D126B971FFC0
250,{,{s42-3,c@la@,a@,5,-,-,-,20030213,38.574101,140.960785,00001B00000000030A983DA6B74E7FC0
251,{,{xJxJ33-1,WXRxJX,X,3,-,2,-,20030228,38.364729,140.875211,00001B00000000030A898526B149FFC0
252,{,{Isz{91,rbNnEXzX,X,1,-,-,-,20030303,38.747557,141.01722,00001B00000000030AA47026BB45FFC0
253,{,{s{147,"}bNXo[{X
",X,1,-,-,-,20030324,38.42564,141.204281,00001B00000000030A8DCDA6C86D7FC0
254,{,{ac48-1,TeCga,O,3,-,2,-,20040217,38.435073,140.919056,00001B00000000030A8E7726B45F7FC0
255,{,{HP48,Vl{HuI[xW,Vl{,1,-,-,-,20031118,38.424846,141.016512,00001B00000000030A8DBF26BB397FC0
256,{,{kR72,a@,a@,1,-,-,-,20040514,38.186897,140.635614,00001B00000000030A7D0426A0717FC0
257,{,{j202-2,sjxX,s,1,-,-,-,20031119,38.0348,140.85909,00001B00000000030A725226B027FFC0
258,{,{s]5-2,Z{yXy,Vl{,1,-,-,-,20031204,38.58874,140.89966,00001B00000000030A994526B301FFC0
259,{,{skROR15-1,I{,"
^{",2,-,-,-,20040115,38.501239,141.196548,00001B00000000030A931E26C7E1FFC0
260,{,{sqc606-1,X,X,2,-,1,-,20040608,38.172856,140.881467,00001B00000000030A7C0726B1BA7FC0
261,{,{L\ynn,X,X,1,-,-,-,20040804,38.045861,140.712674,00001B00000000030A731926A5DC7FC0
262,{,{s43,J^NVbsOZ^[,X,1,-,-,-,20040514,38.001559,140.619238,00001B00000000030A6FFC269F4A7FC0
263,{,{os1,fC[|[gVNX,X,1,-,-,-,20040525,38.679587,141.191623,00001B00000000030A9FA8A6C7897FC0
264,{,{{L5,{z[\,{Vlz[,2,-,1,-,20040528,38.366213,141.027283,00001B00000000030A899FA6BBFB7FC0
265,{,{h3-1,h{Vlz[,{Vlz[,1,-,-,-,20040621,37.983576,140.463941,00001B00000000030A6EB826945EFFC0
266,{,{sDzqk1-1,w@,XEO,1,-,-,-,20040624,38.50092,141.29514,00001B00000000030A9318A6CED0FFC0
267,{,{CsV3-3-3,C,E,2,-,1,-,20040713,38.90349,141.55396,00001B00000000030AAF66A6E1037FC0
268,{,{L\ynn,Vl{m,Vl{,3,-,2,-,20040714,38.048481,140.716753,00001B00000000030A7348A6A625FFC0
269,{,{sJ,}bNXo[JX,X,1,-,-,-,20040727,38.294578,141.012496,00001B00000000030A849626BAF0FFC0
270,{,{Is^20-1,nZ^[,,1,-,-,-,20050310,38.738846,140.953359,00001B00000000030AA3D326B6C87FC0
271,{,{j8,VbsOp[Nj,X,1,-,-,-,20041126,38.033244,140.852864,00001B00000000030A723626AFB7FFC0
272,{,{n,CISuCX,X,1,-,-,-,20050907,38.562574,140.865845,00001B00000000030A976E26B0A17FC0
273,{,{OJOJP1-1,CISuCOJX,X,1,-,-,-,20051003,38.536858,141.147368,00001B00000000030A959F26C46CFFC0
274,{,{s`R1-175,wZ,wZ,3,-,1,-,20050727,38.295551,141.009702,00001B00000000030A84A7A6BABEFFC0
275,{,{sn,xX,X,2,-,1,-,20060614,38.284574,140.974419,00001B00000000030A83E226B843FFC0
276,{,{{ynn,[N^E{,X,1,-,-,-,20060203,38.31802,140.997617,00001B00000000030A863C26B9E57FC0
277,{,{sc458,_ChVeBVbsOZ^[,X,4,1,6,-,20060616,38.163766,140.89579,00001B00000000030A7B63A6B2BC7FC0
278,{,{osX25,oshhZ^[,W,3,-,1,-,20060726,38.6819,141.20676,00001B00000000030A9FD226C899FFC0
279,{,{`34-1,v[,j,2,-,1,-,20060809,38.395098,141.07203,00001B00000000030A8BA7A6BF20FFC0
280,{,{s{3-349-1,RW}NEWX,X,3,-,-,-,20060726,38.587629,140.952237,00001B00000000030A993126B6B47FC0
281,{,{{S{xO28,{X,X,1,-,-,-,20070613,38.329826,140.973309,00001B00000000030A8710A6B82FFFC0
282,{,{scZp276-1,{`,X,1,-,-,-,20080225,-,-,-
283,{,{scZp567,{a,X,2,-,1,-,20080225,-,-,-
284,{,{s3-302-1,WXRX,X,2,-,2,-,20070808,38.157526,140.887027,00001B00000000030A7AF326B21E7FC0
285,{,{IsugPVFJ1-1,CIIVbsOZ^[,X,1,-,-,-,20070830,38.748912,141.068154,00001B00000000030AA48826BEDAFFC0
286,{,{osVO27,bNVeB,X,2,-,2,-,20071010,38.683318,141.183652,00001B00000000030A9FEBA6C6F9FFC0
287,{,{cSOJa]199-1,[N^EOJ,X,1,-,-,-,20071011,38.537774,141.118583,00001B00000000030A95AFA6C2667FC0
288,{,{SagO11,a,ij,3,-,1,-,20080903,38.437343,140.886326,00001B00000000030A8EA026B211FFC0
289,{,{SR17-6,t@[K[f[h,"X
{",1,-,-,-,20081002,-,-,-
290,{,{Isz70,P[YfLzX,X,1,-,-,-,20100830,38.736369,141.021354,00001B00000000030AA3A6A6BB907FC0
291,{,{cSt63,P[YfLX,X,1,-,-,-,20110622,38.046454,140.717075,00001B00000000030A732426A62B7FC0
292,{,{SxJ6-21-1,[Nxj}xJX,X,1,-,-,-,20140910,38.34937,140.89624,00001B00000000030A8870A6B2C47FC0
293,R`,R`R`sot347,}bNXoR`wX,}[PbgicX,2,-,1,-,20050324,38.24997,140.32384,00001B00000000030A8173268A857FC0
294,R`,R`R`s{718,x{,LVlz[,3,-,1,-,20061005,38.26447,140.33392,00001B00000000030A8278268B3AFFC0
295,R`,R`R`skl238,[Nxj}R`X,}[PbgicX,1,-,-,-,20070806,38.2867,140.31741,00001B00000000030A8408A68A117FC0
296,R`,R`R`sZ370,X}CR[gZ,LVlz[,4,-,1,-,20100806,38.25523,140.31311,00001B00000000030A81D22689C3FFC0
297,R`,R`R`skl1113,xk,LVlz[,4,-,1,-,20101025,38.27354,140.33272,00001B00000000030A831BA68B24FFC0
298,R`,R]n,RE\h_Z^[,{,1,-,-,-,20030723,38.279768,140.275982,00001B00000000030A838BA68727FFC0
299,R`,R`ks,[N^Ek,}[PbgicX,1,-,-,-,20040122,38.430574,140.320633,00001B00000000030A8E26268A4B7FC0
300,R`,R`]sLm,}bNXoX,}[PbgicX,2,-,-,-,20041022,38.398654,140.249706,00001B00000000030A8BE7A6854EFFC0
301,R`,R`VsVX,[N^EV,}[PbgicX,1,-,-,-,20080430,38.367787,140.380908,00001B00000000030A89BC268E887FC0
302,R`,R`s,[Nxj}VX,}[PbgicX,1,-,-,-,20080725,38.432518,140.395682,00001B00000000030A8E49268F927FC0
303,R`,R`]synn,CI^E]X,}[PbgicX,1,-,-,-,20110824,38.381041,140.283593,00001B00000000030A8AAAA687B0FFC0
304,R`,VsFynn,CI[V,}[PbgicX,3,-,6,-,20140604,38.343227,140.363041,00001B00000000030A8802268D46FFC0
305,R`,R`Vsc2344|1,@[Nxj},cX,1,-,-,-,20130910,38.770137,140.309035,00001B00000000030AA60626897AFFC0
306,R`,zsO1257-12M,[Nxj}VzX,XiX[p[}[Pbgj,1,-,-,-,20060515,38.051997,140.15278,00001B00000000030A7387A67E7E7FC0
307,R`,scF1888-11889-1,@lR@ga@,a@,6,1,1,-,20060905,38.131572,140.036355,00001B00000000030A792026764E7FC0
308,R`,zsK2869,()CI^EzSM,icX,1,-,-,-,20061218,38.047961,140.173907,00001B00000000030A733F267FFA7FC0
309,R`,s27145,CI^E@}bNXo,X,1,-,-,-,20071127,37.908107,140.130914,00001B00000000030A6969A67CF47FC0
310,R`,s185-2,()[Nxj}X,icX,1,-,-,-,20111117,37.904107,140.107732,00001B00000000030A6921A67B537FC0
311,R`,so3854-1,()[Nxj}o,icX,1,-,-,-,20141021,38.090055,140.037823,00001B00000000030A7634A67668FFC0
312,R`,R`1-1,}bNXo[X,X,1,-,-,-,19950620,38.761664,139.906276,00001B00000000030AA56DA66D28FFC0
313,R`,R`RYh100,,,3,-,-,-,19961001,38.67894,139.84985,00001B00000000030A9F9CA669317FC0
314,R`,R`]]29-1,}U]X,X,1,-,-,-,19970506,38.845825,139.897674,00001B00000000030AAB58A66C8E7FC0
315,R`,R`csV16-1112M,}UcVX,X,1,-,-,-,19971008,38.923262,139.851763,00001B00000000030AB0CAA66953FFC0
316,R`,R`synn,}bNXo[X,X,1,-,-,-,19980310,38.717145,139.84472,00001B00000000030AA24CA668D4FFC0
317,R`,R`n,R_,,3,1,-,-,19990111,38.582929,139.893655,00001B00000000030A98DCA66C45FFC0
318,R`,R`{O266-112M,n_Yp^i{ER~jeB{,O,1,-,-,-,19990210,38.804933,139.875441,00001B00000000030AA878A66AFDFFC0
319,R`,R`ORn,OVbsOZ^[,X,1,-,-,-,19991013,38.815459,139.837165,00001B00000000030AA93626684CFFC0
320,R`,R`sz203-1,z[Z^[TVX,X,1,-,-,-,19991207,38.74119,139.799644,00001B00000000030AA3FD2665A9FFC0
321,R`,R`RY_O383940-2,nre[Va@,a@,4,-,4,-,20000225,38.683008,139.839701,00001B00000000030A9FE626687AFFC0
322,R`,R`Oqac128O,CIOVbsOZ^[,X,3,-,8,-,20010710,38.815459,139.837165,00001B00000000030AA93626684CFFC0
323,R`,R`OVc[cPOPM,B,Vl{,3,1,3,-,20030311,38.669899,140.274708,00001B00000000030A9EFA268710FFC0
324,R`,R`cshQT|P@,R[v,X,1,-,-,-,20060711,38.913061,139.845259,00001B00000000030AB0132668DEFFC0
325,R`,R`sHJkc128]1,ijOhz[uv,Vl{yZ,4,-,1,-,20070605,38.737366,139.861491,00001B00000000030AA3B8A66A02FFC0
326,R`,"R`slc7-18-110-111-112-1161720-3
",}bNXoX,X,1,-,-,-,20080331,38.553356,139.552332,00001B00000000030A96C8265445FFC0
327,R`,R`sW|PW|Q,ijZ^[R[v,X,2,-,-,-,20131205,38.719262,139.833119,00001B00000000030AA272A668047FC0
328,,BsJn1-11-21-42-12-23-13-23-33-46-16-26-37-17-2,[Nxj}X,icX,1,-,-,-,20110310,37.813853,140.548834,00001B00000000030A62C9269A577FC0
329,,S375-9,CIX[p[Z^[X,}[PbgicX,1,-,-,-,20050810,37.24333,140.33156,00001B00000000030A3AABA68B107FC0
330,,Sv294-7,KXe[W[Nxj},}[PbgicX,1,-,-,-,20051018,37.15491,140.44585,00001B00000000030A34742693197FC0
331,,{svc911,KXe[W{[Nxj},}[PbgicX,1,-,-,-,20080207,37.27349,140.36868,00001B00000000030A3CCAA68DAC7FC0
332,,csDDY119-22,KXe[Wc[Nxj},}[PbgicX,1,-,-,-,20091210,37.44982,140.57932,00001B00000000030A4930A69C7BFFC0
333,,sZgQWQ,[Nxj}X,}[PbgicX,1,-,0,-,20050309,37.48566,139.90689,00001B00000000030A4BB5A66D347FC0
334,,s_wlPSX,As^_,}[PbgicX,3,-,4,-,20050530,37.483489,139.904315,00001B00000000030A4B8EA66D05FFC0
335,,sR3-27,Z^[,a@,7,-,2,-,20081125,37.49115,139.92203,00001B00000000030A4C18A66E44FFC0
336,,sR3-27,|ca@,a@,11,-,9,-,20100303,37.49115,139.92203,00001B00000000030A4C18A66E44FFC0
337,,skrvc{81,[Nxj}kX,}[PbgicX,1,-,0,-,20121012,37.517431,139.92424,00001B00000000030A4DF1A66E6C7FC0
338,,ns45-1 O94M,CIX[p[Z^[nX,icX,1,-,-,-,20090630,37.637244,140.943227,00001B00000000030A565E26B6127FC0
339,,nsc22@21M,GCg^En@Xai[Nxj}j,icX,1,-,-,-,20061219,37.807156,140.910962,00001B00000000030A6250A6B3CD7FC0
340,,sOc1-15M,[Nxj}X,iX,3,-,1,-,19960822,37.80671,140.448609,00001B00000000030A6248A6934AFFC0
341,,si4,[Nxj}X,iX,1,-,-,-,19970221,37.769611,140.436537,00001B00000000030A5FACA69271FFC0
342,,sgq3-1,[Nxj}gqX,iX,1,-,-,-,20021125,37.743425,140.440638,00001B00000000030A5DD5A692BB7FC0
343,,scl337-2,[N^EcX,iX,1,-,-,-,20040517,37.761625,140.453655,00001B00000000030A5F1D2693A5FFC0
344,,s{O1-5,[Nxj}X,iX,1,-,-,-,20071012,37.772984,140.448729,00001B00000000030A5FE9A6934D7FC0
345,,s~15-1,[Nxj}X,iX,1,-,-,-,20090525,37.729346,140.451063,00001B00000000030A5CD82693777FC0
346,,s23-3,CIiFFTeBj,iX,4,-,4,-,19980908,37.788397,140.457748,00001B00000000030A60FF2693EF7FC0
347,,sXm5-1,}bNXoXX,iX,1,-,-,-,20050824,37.734947,140.45444,00001B00000000030A5D3D2693B3FFC0
348,,scFmO32-1,UErbOcX,X[p[}[Pbg,1,-,-,-,20120921,37.790442,140.480691,00001B00000000030A6123A6958C7FC0
349,,su1,sxX,s,2,-,-,-,20061219,37.754417,140.4643,00001B00000000030A5E9BA694657FC0
350,,s]1217iFFsrc2-1O56-1j,KlXiFFKlXj,iX,1,-,-,-,19990909,37.787587,140.456072,00001B00000000030A60F0A693D17FC0
351,,SRsm16n,[Nxj}X,}[PbgicX,1,-,-,-,20071225,37.419664,140.333232,00001B00000000030A4711A68B2E7FC0
352,,SRs350豫351豫352豫353豫354P,[Nxj}X,}[PbgicX,1,-,-,-,20131210,37.390425,140.393478,00001B00000000030A4503A68F6AFFC0
353,,s]I18,[Nxj}]IX,icX,1,0,0,-,20040519,36.90771,140.77205,00001B00000000030A2312A6AA08FFC0
354,,sDDSz110,[Nxj}DX,icX,1,0,0,-,20090806,37.059041,140.872017,00001B00000000030A2DB6A6B1107FC0
355,,sXO150,[Nxj}X,icX,1,0,0,-,20110210,37.04879,140.87376,00001B00000000030A2CFE26B12FFFC0
356,,sr40,[Nxj}rX,icX,1,0,0,-,20141203,37.03762,140.89403,00001B00000000030A2C3526B29CFFC0
357,,sO24X1nisO790j,JX~X,}[PbgicX,-,-,-,-,20000301,36.342065,140.534272,00001B000000000309FB4D269950FFC0
358,,ksJ_爨_c261119M,JCYz[kX,}[PbgicX,-,-,-,-,20000904,36.828931,140.778567,00001B00000000030A1D88A6AA7E7FC0
359,,sO1270-2,JCYz[X,}[PbgicX,-,-,-,-,20011203,36.49158,140.604497,00001B00000000030A05D0269E40FFC0
360,,cV♀1827-31isV1827-31j,JX~cX,}[PbgicX,-,-,-,-,20021029,36.135284,140.24213,00001B000000000309ECC32684C67FC0
361,,sB9784-313M,JCYz[X[p[Z^[X,}[PbgicX,-,-,-,-,20021204,36.292787,139.859066,00001B000000000309F7D62669D77FC0
362,,c218587M@iszPPSn1j,JX~wOX,}[PbgicX,-,-,-,-,20051116,35.995842,140.0399,00001B000000000309E2F526768E7FC0
363,,gcs112317Migcs1131j,JX~mX,}[PbgicX,-,-,-,-,20051208,36.116882,140.586156,00001B000000000309EB77A69CF6FFC0
364,,scV1104-1,[Nxj}X,}[PbgicX,-,-,-,-,20050623,36.038014,139.891918,00001B000000000309E5EC266C26FFC0
365,,h4100-2i}s4096-14j,JX~X,}[PbgicX,-,-,-,-,20050803,36.29672,140.273031,00001B000000000309F81CA686F2FFC0
366,,s1975-3,[Nxj}X,}[PbgicX,-,-,-,-,20060912,36.197891,140.30586,00001B000000000309F12A2689417FC0
367,,}s2095-19Mi}sQOXUnj,JX~}X,}[PbgicX,-,-,-,-,20071108,36.383997,140.245769,00001B000000000309FE3FA68507FFC0
368,,inj~S{n77X2i~S{OPn1j,JX~r{,}[PbgicX,-,-,-,-,20070330,36.02278,140.177799,00001B000000000309E4DA2680407FC0
369,,s227710MisQQWSnj,JX~X,}[PbgicX,-,-,-,-,20080704,36.17281,140.351664,00001B000000000309EF66A68C79FFC0
370,,s2129-2is2222-2j,JX~sAVeBX,}[PbgicX,-,-,-,-,20080826,36.19399,140.284303,00001B000000000309F0E3A687BD7FC0
371,,s{11839-131M,[Nxj}lcX,}[PbgicX,-,-,-,-,20090702,36.306034,139.86841,00001B000000000309F8C4A66A7F7FC0
372,,ssb1037,JCYz[X,}[PbgicX,-,-,-,-,20090818,36.100725,140.411545,00001B000000000309EA552690AFFFC0
373,,sZA757-224MisZA748-3j,JX~ZAX,}[PbgicX,-,-,-,-,20100301,36.494761,140.447419,00001B00000000030A0609A69335FFC0
374,,}s31470-258,[Nxj}FX,}[PbgicX,-,-,-,-,20110511,36.347896,140.314978,00001B000000000309FBB62689E5FFC0
375,,vs118,[Nxj}vX,}[PbgicX,-,-,-,-,20130125,35.974532,140.150229,00001B000000000309E175A67E507FC0
376,,}s{830-1,[Nxj}}X,}[PbgicX,-,-,-,-,20131016,36.317121,139.994686,00001B000000000309F98C2673607FC0
377,,sxUc7151@25M,JCYz[X,}[PbgicX,-,-,-,-,20140508,36.193156,139.988804,00001B000000000309F0D4A672F67FC0
378,,vsO29910M,[Nxj}X,}[PbgicX,-,-,-,-,20150203,36.009763,140.156356,00001B000000000309E3EFA67EBE7FC0
379,,sQPn,CI[,}[PbgicX,5,-,13,-,20121213,36.373965,140.358367,00001B000000000309FD8B268CF2FFC0
380,,slcPQRO,[Nxj}lcX,}[PbgicX,1,-,-,-,20100622,36.36278,140.49564,00001B000000000309FCC2269699FFC0
381,,s}XVWRX,[I,}[PbgicX,2,-,2,-,20080711,36.34404,140.44547,00001B000000000309FB70A693127FC0
382,,s}XVWSP,X[p[roz[@OX,}[PbgicX,2,-,1,-,20080730,36.34404,140.44547,00001B000000000309FB70A693127FC0
383,,sO1270-2,JCYz[X,}[PbgicX,2,-,4,-,20011203,36.49158,140.604497,00001B00000000030A05D0269E40FFC0
384,,s{TROV|POPQM,}grbX,}[PbgicX,1,-,-,-,20030811,36.615832,140.671392,00001B00000000030A0E8CA6A2F57FC0
385,,s4VV|3VW,JX~X,}[PbgicX,1,-,-,-,20060816,36.568552,140.647655,00001B00000000030A0B39A6A149FFC0
386,,s440|11O,[Nxj}X,}[PbgicX,1,-,-,-,20081224,36.583754,140.642958,00001B00000000030A0C4BA6A0F57FC0
387,,s_1123,JX~t[hXNGA_X,}[PbgicX,1,-,-,-,20101122,36.597354,140.653272,00001B00000000030A0D4026A1AEFFC0
388,,ks114565,GXR[g,{Vlz[,1,-,0,-,20050228,36.818285,140.739678,00001B00000000030A1CC926A7C27FC0
389,,ksJ2834n,[Nxj}X,}[PbgicX,1,-,0,-,20050308,36.776326,140.732099,00001B00000000030A19D5A6A739FFC0
390,,s{cO682n,xCVAaX,}[PbgicX,1,-,0,-,20100616,36.182872,139.717021,00001B000000000309F01BA65FDA7FC0
391,,sV2-5-25,sEFlXvU,Z^[EW,3,1,1,-,20140403,35.89849,140.06265,00001B000000000309DC1CA67827FFC0
392,,sPUVR|QP,R[vR[vX,}[PbgicX,2,-,0,-,20031205,36.4179,140.54253,00001B00000000030A00A22699E5FFC0
393,, s3614nP,[Nxj}X,}[PbgicX,1,-,0,-,20051027,36.41568,140.52821,00001B00000000030A007A2698E3FFC0
394,,s116,[Nxj}X,}[PbgicX,1,-,0,-,20100506,36.38386,140.53421,00001B000000000309FE3D26994FFFC0
395,,snn2912-1,JX~nnX,}[PbgicX,1,-,0,-,20110128,36.407607,140.566704,00001B000000000309FFE8A69B98FFC0
396,,s_c200,JX~aX,}[PbgicX,1,-,0,-,20131008,36.434377,140.535154,00001B00000000030A01CAA69960FFC0
397,,Fs{sI3375-6,[Nxj}X,icX,1,-,0,-,19960513,36.529074,139.921886,00001B00000000030A0873266E41FFC0
398,,Fs{sJJ370-15,[Nxj}JX,icX,1,-,0,-,19960624,36.588866,139.853574,00001B00000000030A0CA7A669747FC0
399,,Fs{sL287,Lmrb,icX,2,1,1,-,19981026,36.60485,139.88457,00001B00000000030A0DC7266BA27FC0
400,,Fs{s110-54,vU,,4,1,3,-,19990121,36.58459,139.86244,00001B00000000030A0C5AA66A13FFC0
401,,Fs{s3337-1,nre[VZ^[,NZ^[,7,1,3,-,19990323,36.583725,139.844884,00001B00000000030A0C4B2668D7FFC0
402,,Fs{sz44344-182,RW}mdvX,icX,5,-,1,-,19990615,36.558124,139.920498,00001B00000000030A0A7E266E28FFC0
403,,Fs{s]]{844,As^Fs{X`,icX,4,-,6,-,20000822,36.531591,139.866911,00001B00000000030A08A0A66A647FC0
404,,Fs{s]]{844,As^Fs{Xa,icX,1,-,1,-,20000822,36.531591,139.866911,00001B00000000030A08A0A66A647FC0
405,,Fs{sc567,qw,w,3,-,1,-,20001006,36.51349,139.83768,00001B00000000030A075AA668567FC0
406,,Fs{sz4925-13,Z^[,a@,6,2,4,-,20001006,36.534031,139.869286,00001B00000000030A08CCA66A8F7FC0
407,,Fs{sc902-2,[Nxj}cX,icX,1,-,0,-,20001222,36.525686,139.851273,00001B00000000030A083626694AFFC0
408,,Fs{sz34251-1,xCVAFs{zX,icX,1,-,0,-,20011225,36.556375,139.925406,00001B00000000030A0A5EA66E817FC0
409,,Fs{su62558-68,[Nxj}uX,icX,1,-,0,-,20020830,36.568364,139.919128,00001B00000000030A0B36A66E107FC0
410,,Fs{sJ885,C^[p[NFs{,VZC{[OyX|[cK,3,-,1,-,20030331,36.500091,139.903422,00001B00000000030A0669A66CF5FFC0
411,,Fs{s馐411-14,[Nxj}馐X,icX,1,-,0,-,20031119,36.549946,139.90091,00001B00000000030A09EB266CC87FC0
412,,Fs{sc11-20,,,15,1,7,-,20040520,36.56458,139.88339,00001B00000000030A0AF2266B8D7FC0
413,,Fs{sc704-1,R[vcX,icX,1,-,0,-,20080422,36.559868,139.855287,00001B00000000030A0A9DA669937FC0
414,,Fs{sJ1097-3,JX~eNm|XFs{X,icX,1,-,0,-,20090219,36.566899,140.001863,00001B00000000030A0B1C2673E1FFC0
415,,Fs{s{55-1,Fs{s},},2,-,3,-,20090814,36.495062,139.87984,00001B00000000030A060F266B4D7FC0
416,,Fs{sJ1097-1,JCYz[Fs{eNm|XX,icX,1,-,0,-,20100601,36.566741,139.999359,00001B00000000030A0B192673B47FC0
417,,Fs{s13-5,Fs{LOa@,a@,12,1,4,-,20140124,36.560529,139.891373,00001B00000000030A0AA9A66C1CFFC0
418,,Fs{sjJVc472-6,[N^EFs{jJ,icX,1,-,0,-,20141007,36.489839,139.857251,00001B00000000030A05B12669B6FFC0
419,,Fs{s{R3190-11,nZ^[,W,2,-,1,-,20141017,36.628896,139.939373,00001B00000000030A0F78266F7CFFC0
420,,sq221-16,[N^E,}[PbgicX,2,-,6,-,19980325,36.31613,139.44492,00001B000000000309F97A264CB8FFC0
421,,s^1-1,NZ^[,,2,-,1,-,19990804,36.33817,139.47438,00001B000000000309FB07264ECAFFC0
422,,s3-2,JCYz[X,}[PbgicX,2,-,0,-,20070925,36.33668,139.47725,00001B000000000309FAEC264EFEFFC0
423,,s1-5-11,COOP,icX,1,-,0,-,20000515,36.38713,139.74765,00001B000000000309FE78266201FFC0
424,,sc666,Z^[,EOEVl{,2,-,0,-,20001221,36.335988,139.718448,00001B000000000309FADFA65FF47FC0
425,,sF 700,JCYz[X,icX,1,-,0,-,20080325,36.354405,139.709806,00001B000000000309FC2B265F58FFC0
426,,sF693,xCVAd[,icX,1,-,0,-,20080325,36.35257,139.708824,00001B000000000309FC0A265F46FFC0
427,,sj6-28,[Nxj}jX,icX,1,-,0,-,20100812,36.37953,139.72783,00001B000000000309FDEFA6609CFFC0
428,,sF215-2/,[Nxj}X,icX,1,-,0,-,20131216,36.34789,139.703489,00001B000000000309FBB6265EE6FFC0
429,,s956-19,tHIX,icX,2,-,1,-,19970501,36.3037,139.56544,00001B000000000309F89AA65531FFC0
430,,sx1728,a@,a@,8,1,8,-,20010605,36.32506,139.57274,00001B000000000309FA1B2655B57FC0
431,,s1324-1,CI[Vss,icX,3,-,5,-,20021028,36.298317,139.606125,00001B000000000309F839A6580E7FC0
432,,s1338-1,RW}NEWX,icX,3,-,1,-,20050819,36.297902,139.604129,00001B000000000309F8322657EA7FC0
433,,sR1899,[Nxj}RX,icX,1,-,0,-,20120619,36.31594,139.604082,00001B000000000309F976A657E97FC0
434,,sr287n1,[Nxj}rX,icX,2,-,1,-,20080125,36.56969,139.75313,00001B00000000030A0B4E2662647FC0
435,,sc11033n,sa@,a@,8,1,3,-,20110712,36.56156,139.75072,00001B00000000030A0ABC266238FFC0
436,,sLcVX|P,WXRsX,icX,2,-,3,-,19980731,36.73088,139.70016,00001B00000000030A16A3A65EAAFFC0
437,,sS{Q|U,Z^[uv,Vl{,1,-,0,-,19990624,36.79694,139.70358,00001B00000000030A1B48A65EE87FC0
438,,sLc406,JCYz[sX,icX,1,-,0,-,19990624,36.73564,139.70535,00001B00000000030A16F9A65F087FC0
439,,ss994-1,RW}mdvX,icX,1,-,0,-,20070703,36.72278,139.7038,00001B00000000030A1612265EEC7FC0
440,,s218-1,InX[p[sX,icX,1,-,0,-,20070711,36.73437,139.69064,00001B00000000030A16E2A65DFFFFC0
441,,Rsv1467-1,WXRRX,isX,2,-,3,-,19970325,36.32021,139.83986,00001B000000000309F9C3A6687D7FC0
442,,Rsw613-4,RW}NEWRX,isX,3,-,1,-,20041027,36.29934,139.81471,00001B000000000309F84C2666B8FFC0
443,,Rs1475-182,[Nxj}RX,isX,1,-,0,-,20070205,36.33251,139.80879,00001B000000000309FAA126664E7FC0
444,,Rsv1467-1,WXRRX,isX,2,-,4,-,20071128,36.32021,139.83986,00001B000000000309F9C3A6687D7FC0
445,,RsJJ61n,[Nxj}JJX,isX,1,-,0,-,20121025,36.283965,139.812422,00001B000000000309F73726668FFFC0
446,,cs1,[Nxj}cX,iXcX,1,-,0,-,19970926,36.863233,140.010118,00001B00000000030A1FF22674767FC0
447,,csk,w,{,3,-,2,-,20000111,36.870994,140.069643,00001B00000000030A207DA678A5FFC0
448,,y,,iXcX,2,-,2,-,20010328,36.790613,140.128634,00001B00000000030A1AD7267CCB7FC0
449,,{s|POWV|QS,[Nxj}{X,icX,1,-,0,-,20061020,36.962854,140.064741,00001B00000000030A26F326784D7FC0
450,,{sSTT,CISuC{X,icX,1,-,0,-,20080618,36.929083,140.006057,00001B00000000030A249326742D7FC0
451,,{GRscq85-1,Z^[,VeZ^[E{,1,-,0,-,19981119,36.65897,140.09773,00001B00000000030A1195267A9F7FC0
452,,SOO4756,JX~XgA[,icX,1,-,0,-,19990315,36.42976,139.90839,00001B00000000030A0177A66D4F7FC0
453,,{Sn116-9,Ldp,p,1,-,0,-,20000306,36.73883,140.17087,00001B00000000030A1732A67FC3FFC0
454,,{S1065,Z^[,^[~iEENZ^[,2,-,1,-,20001027,36.764711,140.135811,00001B00000000030A1904A67D4CFFC0
455,,{GRscq65-1,{},},1,-,0,-,20011218,36.65897,140.09773,00001B00000000030A1195267A9F7FC0
456,,{GRs1880,xCVAVbsOZ^[,icX,2,-,0,-,20030421,36.66004,140.15854,00001B00000000030A11A8A67EE5FFC0
457,,FSvq2535,vqJX|[c{,,1,-,0,-,19990330,36.49496,140.10616,00001B00000000030A060D267B36FFC0
458,,^sR2668-2,CIX[p[Z^[^X,icX,1,-,0,-,20050719,36.43275,140.001779,00001B00000000030A01ADA673E07FC0
459,,^s2-17-7 17-8 -9 -10 -11,RW}NEW^X,icX,2,-,1,-,20061114,36.440478,139.985532,00001B00000000030A0238A672BBFFC0
460,,^s87530Me,X,icX,1,-,0,-,20080107,36.442203,140.024994,00001B00000000030A0257A67581FFC0
461,,FSvqvqec2007-141M,vqVbsO^E,icX,1,-,0,-,20080107,36.468157,140.09174,00001B00000000030A042AA67A337FC0
462,,sxcc16210M,[Nxj}X,icX,1,-,0,-,19960410,36.798435,139.929207,00001B00000000030A1B63A66EC5FFC0
463,,JS2893-18M,[Nxj}X,icX,1,-,0,-,19960806,36.692717,139.963986,00001B00000000030A13F4A67137FFC0
464,,{S{vbO484-1,WXR{X,icX,1,-,0,-,19981113,36.985423,140.062178,00001B00000000030A2889A6781F7FC0
465,,AA4141-48M,wA,^[~i,2,-,0,-,20001213,36.715499,140.032636,00001B00000000030A158EA6760B7FC0
466,,AA4141-48M,wA,^[~i,2,-,1,-,20010806,36.715499,140.032636,00001B00000000030A158EA6760B7FC0
467,,{S{157{Ln,{NR,h{,2,-,0,-,20011009,37.11249,140.008146,00001B00000000030A3178A67452FFC0
468,,AA[807-8,A,,1,-,0,-,20020726,36.718899,140.02469,00001B00000000030A15CC26757C7FC0
469,,sN1551-1O41M,CIX[p[Z^[X,icX,1,-,0,-,20051125,36.689696,139.979152,00001B00000000030A13BEA67248FFC0
470,,sN16091610-11610-2,RW}d@X,icX,1,-,0,-,20100602,36.68956,139.981513,00001B00000000030A13BC2672737FC0
471,,szOR226-2,wE,{,1,1,1,-,20111014,36.754447,139.968054,00001B00000000030A184C267180FFC0
472,,sc88O14M,JCYz[X,icX,1,-,0,-,20120822,36.806811,139.921703,00001B00000000030A1BFAA66E3EFFC0
473,,s_1-24,_VbsOriX|[cJCXj,icX,1,-,0,-,19961111,36.39246,139.8564,00001B000000000309FED82669A77FC0
474,,sR1220,sZ^[,Z^[E{,2,1,0,-,19991102,36.445176,139.843612,00001B00000000030A028D2668C17FC0
475,,st3311-1,w@V,a@,8,1,8,-,19991118,36.41003,139.86243,00001B00000000030A0014A66A13FFC0
476,,s789,sZ^[,Z^[E{,2,1,0,-,20010531,36.38579,139.83728,00001B000000000309FE6026684F7FC0
477,,st3311-1,w@qZ^[,a@,4,1,6,-,20040618,36.41003,139.86243,00001B00000000030A0014A66A13FFC0
478,Qn,OsgQ|PV|T,Os,{,3,1,2,-,20000712,36.398225,139.07966,00001B000000000309FF40263309FFC0
479,Qn,grZcPVOiOj,JCYg,icX,1,-,-,-,19991126,36.258092,138.991502,00001B000000000309F565A62CD77FC0
480,Qn,sSS|QSMinFssvwynPTXSS|QSMj,r,"icX
yi{j",6,1,6,-,20031106,36.324923,139.011425,00001B000000000309FA18A62E3DFFC0
481,Qn,sL115-17M,sZ^[,Z^[ij,3,1,2,-,20060502,36.337476,139.008637,00001B000000000309FAFAA62E0B7FC0
482,Qn,sE1167-1,CIX,icX,4,-,9,-,20060907,36.389403,139.00686,00001B000000000309FEA1262DEB7FC0
483,Qn,sh1-1,}_d@LABI1,icX堀,12,2,14,-,20080523,36.32384,139.01324,00001B000000000309FA05262E5E7FC0
484,Qn,sRU|P,s@la@@\a@,a@,7,1,7,-,20100329,36.321799,139.002359,00001B000000000309F9E0262D9A7FC0
485,Qn,sJ20-991O9M,JX,icX,1,-,-,-,20101104,36.380265,139.017978,00001B000000000309FDFCA62EB3FFC0
486,Qn,s5-28,Z^[},},6,1,10,-,20101222,36.32599,139.00073,00001B000000000309FA2BA62D7D7FC0
487,Qn,s605-13O21M,QnX,XiHiEpiGj,1,-,-,-,20150519,36.371903,139.001334,00001B000000000309FD66262D887FC0
488,Qn,cs81n205M,CIcVbsOZ^[,iX,3,-,29,-,20031115,36.294045,139.400463,00001B000000000309F7ECA649987FC0
489,Qn,cs626nO133M,娃布c[i娃布dj,iX,1,-,0,-,20101019,36.275242,139.38706,00001B000000000309F69A2648A77FC0
490,Qn,cs626nO133M,娃布c[i娃布E恫萁j,iX,1,-,0,-,20101019,36.275687,139.385248,00001B000000000309F6A22648867FC0
491,Qn,csV377-6@8M,cVX,iX,1,-,0,-,20110610,36.284845,139.367277,00001B000000000309F747264742FFC0
492,Qn,csV533-2,R[vVX,iX,1,-,0,-,20110613,36.28545,139.36998,00001B000000000309F752264773FFC0
493,Qn,cs29-13,cX,iX,1,-,0,-,20141105,36.298957,139.369101,00001B000000000309F845264763FFC0
494,Qn,asUTV|QU,xCVAqrbX,iX,1,-,0,-,20000403,36.517921,139.014246,00001B00000000030A07AAA62E707FC0
495,Qn,csvgSVW|P,JCYcX,iX,1,-,0,-,20001012,36.666219,139.109827,00001B00000000030A1217A63528FFC0
496,Qn,xsUVR,xCVAxrbX,iX,1,-,0,-,20001030,36.261255,138.866471,00001B000000000309F59EA6240C7FC0
497,Qn,asLnQVR,JCYz[aLnX,iX,1,-,0,-,20001130,36.472227,139.009988,00001B00000000030A0474262E23FFC0
498,Qn,ssvwkyn40X40-110M,xCVAX,iX,2,-,0,-,20000827,36.572944,138.822149,00001B00000000030A0B88A620EEFFC0
499,Qn,SqcTOV@QTM,xCVAX,iX,2,-,0,-,20011112,36.694321,138.988531,00001B00000000030A1411A62CA1FFC0
500,Qn,RcSXXXPVVP|PW@PUM,xCVAt[hZ^[XX,iX,1,-,0,-,20021016,36.427952,139.279232,00001B00000000030A01572641127FC0
501,Qn,kQnSgvOWQP,JCYz[Og[@`,iX,2,-,0,-,20021118,36.421515,139.024061,00001B00000000030A00E3262F217FC0
502,Qn,kQnSgvOWOV,JCYz[Og[@a,iX,1,-,0,-,20021118,36.421515,139.024061,00001B00000000030A00E3262F217FC0
503,Qn,ySyXOOO,JCYz[X[p[Z^[xyX,iX,2,-,0,-,20031006,36.25691,138.922499,00001B000000000309F5502627FCFFC0
504,Qn,sSPU|SQM,WC}[gX,iX,3,-,4,-,20040329,36.245489,139.081708,00001B000000000309F482A6332EFFC0
505,Qn,WyScTWXPOOO,JCYz[X,iX,1,-,0,-,20070209,36.262633,139.40102,00001B000000000309F5B72649A27FC0
506,Qn,WySWyRPPO|R,WyX,iX,1,-,0,-,20101021,36.263002,139.472373,00001B000000000309F5BE264EA6FFC0
507,Qn,cscQTR,ZL`[ccX,iX,1,-,0,-,20141215,36.65791,139.020159,00001B00000000030A1182262EDAFFC0
508,,YasiFsj, ()|r@T~bgYa,X,-,-,-,-,19950000,35.860287,139.696721,00001B000000000309D96D265E6CFFC0
509,,vs,()vsZ^[,{,-,-,-,-,19950000,36.063718,139.625964,00001B000000000309E7BAA659737FC0
510,,FJs, ()FJsQZ^[,,-,-,-,-,19950000,36.07686,139.426705,00001B000000000309E8A7264B70FFC0
511,,,Z^[ GREX|,{,-,-,-,-,19950000,36.052935,139.787387,00001B000000000309E6F8A664CCFFC0
512,,s,()i[VOZ^[,Vl{,-,-,-,-,19950000,35.889117,139.329994,00001B000000000309DB742644A3FFC0
513,,{s,Zj[z[{,W,-,-,-,-,19950000,36.240521,139.172076,00001B000000000309F4292639897FC0
514,,@cs,}Gc@@cRX,X,-,-,-,-,19950000,35.996979,139.655301,00001B000000000309E309A65B837FC0
515,,ts, ()tsZ^[,{,-,-,-,-,19960000,35.977027,139.745644,00001B000000000309E1A22661DDFFC0
516,,ts, ()tsNZ^[@o,Vl{,-,-,-,-,19960000,35.943325,139.767236,00001B000000000309DF43A663627FC0
517,,Vs, t[hvX@VX,X,-,-,-,-,19960000,35.802204,139.57093,00001B000000000309D557A65594FFC0
518,,[Js,R[v@[J,X,-,-,-,-,19960000,36.197932,139.278678,00001B000000000309F12AA641087FC0
519,,Rs,F@RX,X,-,-,-,-,19960000,36.043776,139.408031,00001B000000000309E653A64A20FFC0
520,,{s,@l{a@Vl{@,Vl{,-,-,-,-,19960000,36.239676,139.182272,00001B000000000309F41A263A40FFC0
521,,YasiFsj , [N}[g@OX,X,-,-,-,-,19970000,35.883227,139.687974,00001B000000000309DB0A265DCFFFC0
522,,siFsj,R[v@|[X,X,-,-,-,-,19970000,35.955196,139.716704,00001B000000000309E019A65FD4FFC0
523,,gs,gsZ^[伐s},{,-,-,-,-,19970000,35.895541,139.854657,00001B000000000309DBE7A66987FFC0
524,,Rs, R[v@|[RX,X,-,-,-,-,19970000,35.8551,139.435591,00001B000000000309D90FA64C10FFC0
525,,FJs,Vbv[rbOxA,X,-,-,-,-,19970000,36.174218,139.36936,00001B000000000309EF7FA647687FC0
526,,cs,[N}[g@cOX,X,-,-,-,-,19970000,35.806626,139.688723,00001B000000000309D5A7265DDD7FC0
527,,scs,ijscs,{,-,-,-,-,19970000,36.18662,139.457115,00001B000000000309F05F264D947FC0
528,,us,uwsXnJ{z,{,-,-,-,-,19970000,-,-,-
529,,iFsj,TeB,X,-,-,-,-,19970000,35.860024,139.514368,00001B000000000309D96826519AFFC0
530,,ns,ijyJr,VZ,-,-,-,-,19970000,35.831563,139.673193,00001B000000000309D768265CC57FC0
531,,s,sxnVle@,Vl{,-,-,-,-,19970000,35.823875,139.451724,00001B000000000309D6DDA64D337FC0
532,,s,T~bgXgA@X,X,-,-,-,-,19970000,35.810272,139.728214,00001B000000000309D5E8A660A3FFC0
533,,s,}Gc@sX,X,-,-,-,-,19970000,35.837128,139.751679,00001B000000000309D7CC26624A7FC0
534,,{siFsj,}Gc@{X,X,-,-,-,-,19970000,35.939575,139.646244,00001B000000000309DF00265AE07FC0
535,,ts,tsjQiZ^[,{,-,-,-,-,19980000,35.974257,139.768667,00001B000000000309E170A6637C7FC0
536,,ts,VbsOri}Gcj,X,-,-,-,-,19980000,35.967661,139.768877,00001B000000000309E0F9A6637FFFC0
537,,,JCYz[@X,X,-,-,-,-,19980000,35.949941,139.805963,00001B000000000309DFBAA6661B7FC0
538,,siFsj,Cg[[Jh[@X,X,-,-,-,-,19980000,35.880552,139.518296,00001B000000000309DAD9A651E17FC0
539,,s,()s,{,-,-,-,-,19980000,35.816548,139.599901,00001B000000000309D659A6579E7FC0
540,,s,}Gc@X,X,-,-,-,-,19980000,35.992816,139.599033,00001B000000000309E2BEA6578EFFC0
541,,YasiFsj,R[v@|[YaX,X,-,-,-,-,19990000,35.878553,139.676542,00001B000000000309DAB5A65D01FFC0
542,,s,}~[}[g@X,X,-,-,-,-,19990000,36.011744,139.577777,00001B000000000309E41326560FFFC0
543,,F,Fa@,a@,-,-,-,-,19990000,36.077103,139.101033,00001B000000000309E8ABA6348AFFC0
544,,iFsj ,R[v@X,X,-,-,-,-,19990000,36.113976,139.440325,00001B000000000309EB43A64C65FFC0
545,,s,t@~[@X,X,-,-,-,-,19990000,35.895562,139.335292,00001B000000000309DBE82645037FC0
546,,s,LnsXnJ{iAC|bgj,{,-,-,-,-,19990000,35.83565,139.38705,00001B000000000309D7B1A648A6FFC0
547,,{s,gXero@{X,X,-,-,-,-,19990000,36.238492,139.191026,00001B000000000309F404A63ADE7FC0
548,,@cs,Ct@@cX,X,-,-,-,-,19990000,35.977961,139.640398,00001B000000000309E1B3265A777FC0
549,,s,nVle@fCT[rXZ^[,Vl{,-,-,-,-,19990000,35.7941,139.464158,00001B000000000309D4C5A64E12FFC0
550,,s,}XgA@X,X,-,-,-,-,19990000,35.965318,139.562602,00001B000000000309E0CFA654FEFFC0
551,,{siFsj,{TeB,X,-,-,-,-,19990000,35.923345,139.609555,00001B000000000309DDDC26584BFFC0
552,,vs,vsvR~jeBZ^[,W,-,-,-,-,20000000,36.077732,139.636363,00001B000000000309E8B7265A2EFFC0
553,,vs,X[p[I[gobNXj,X,-,-,-,-,20000000,36.077967,139.667285,00001B000000000309E8BB265C5B7FC0
554,,FJs,FJTeB,X,-,-,-,-,20000000,36.14764,139.377373,00001B000000000309EDA1A647F8FFC0
555,,us,ijuwZ{,{,-,-,-,-,20000000,35.83093,139.576511,00001B000000000309D75CA655F97FC0
556,,iFsj,Z^[,{,-,-,-,-,20000000,35.859432,139.507242,00001B000000000309D95DA6511A7FC0
557,,s,sNZ^[,{,-,-,-,-,20000000,35.815048,139.389862,00001B000000000309D63EA648D9FFC0
558,,\s,LSX@\X,X,-,-,-,-,20000000,35.853012,139.326395,00001B000000000309D8EA2644637FC0
559,,\s,JCYz[@\X,X,-,-,-,-,20000000,35.831598,139.341033,00001B000000000309D768A6456AFFC0
560,,s,F@X,X,-,-,-,-,20000000,35.791305,139.458962,00001B000000000309D493264DB57FC0
561,,s,@tX,X,-,-,-,-,20000000,35.976574,139.582557,00001B000000000309E19A2656667FC0
562,,s,F@RX,X,-,-,-,-,20000000,35.843172,139.744089,00001B000000000309D8392661C1FFC0
563,,s,_ChVeB@L,X,-,-,-,-,20000000,35.83353,139.706666,00001B000000000309D78BA65F1FFFC0
564,,s,F@X,X,-,-,-,-,20000000,35.825895,139.8043,00001B000000000309D7022665FD7FC0
565,,s,F@YaX,X,-,-,-,-,20010000,35.852782,139.637271,00001B000000000309D8E6265A3EFFC0
566,,zJs,F@X,X,-,-,-,-,20010000,35.864868,139.80737,00001B000000000309D9BFA66634FFC0
567,,s,s,^{,-,-,-,-,20010000,35.809874,139.462333,00001B000000000309D5E1A64DF1FFC0
568,,s,sN[Z^[TCN,H,-,-,-,-,20010000,35.804912,139.500165,00001B000000000309D58826509AFFC0
569,,{s,{s,W,-,-,-,-,20020000,36.123525,139.59879,00001B000000000309EBEF26578A7FC0
570,,RiF{sj,RUwK{,{,-,-,-,-,20020000,36.104795,139.58421,00001B000000000309EA9E265683FFC0
571,,csEns,Cg[[J@nX,X,-,-,-,-,20020000,35.821324,139.677469,00001B000000000309D6AFA65D127FC0
572,,us,uwZ{,{,-,-,-,-,20020000,35.83093,139.576511,00001B000000000309D75CA655F97FC0
573,,s,JCYz[@X,X,-,-,-,-,20020000,35.926839,139.393403,00001B000000000309DE1B2649197FC0
574,,s,R[,X,-,-,-,-,20020000,-,-,-
575,,s,CI@VbsOZ^[,X,-,-,-,-,20030000,-,-,-
576,,s,R[v@|[YaX,X,-,-,-,-,20030000,35.839134,139.641362,00001B000000000309D7F0265A88FFC0
577,,s,J^NVbsO[P,X,-,-,-,-,20030000,35.89483,139.636104,00001B000000000309DBDAA65A29FFC0
578,,FJs,FJwnPsXnJ{z,{,-,-,-,-,20030000,-,-,-
579,,Ks,KsZ^[iEFXKj ,{,-,-,-,-,20030000,36.068929,139.736427,00001B000000000309E818A66137FFC0
580,,s,@X,X,-,-,-,-,20030000,35.919568,139.386617,00001B000000000309DD9826489F7FC0
581,,s,CI@VbsOZ^[,X,-,-,-,-,20030000,35.821828,139.395177,00001B000000000309D6B8A649397FC0
582,,kiF{sj,kwKZ^[,{,-,-,-,-,20030000,36.190858,139.66064,00001B000000000309F0AB265BE3FFC0
583,,k{s,k{swZ,wZ,-,-,-,-,20030000,36.020866,139.538807,00001B000000000309E4B7A65352FFC0
584,,s,QDX,,-,-,-,-,20030000,35.810035,139.425911,00001B000000000309D5E4A64B627FC0
585,,s,@TX,X,-,-,-,-,20030000,35.805221,139.709342,00001B000000000309D58DA65F507FC0
586,,s,T~bgXgA@X,X,-,-,-,-,20030000,35.823541,139.749502,00001B000000000309D6D7A662237FC0
587,,s,q,W,-,-,-,-,20040000,-,-,-
588,,zJs,zJLij,,-,-,-,-,20040000,35.914288,139.816825,00001B000000000309DD392666DEFFC0
589,,zJs,zJgLa@VlfCT[rX,Vl{,-,-,-,-,20040000,35.869633,139.769957,00001B000000000309DA152663937FC0
590,,,xCVA@kX,X,-,-,-,-,20040000,36.131715,139.204323,00001B000000000309EC82A63BCDFFC0
591,,FJs,eBAQP,X,-,-,-,-,20040000,36.13947,139.391614,00001B000000000309ED0E2648F97FC0
592,,cs,@lc@ca@,a@,-,-,-,-,20040000,35.811245,139.680141,00001B000000000309D5FA265D42FFC0
593,,cs,CI@kcVbsOZ^[,X,-,-,-,-,20040000,35.826696,139.652618,00001B000000000309D710A65B537FC0
594,,Os,X[p[roz[@OX@eig,X,-,-,-,-,20040000,35.841107,139.856986,00001B000000000309D813A669B1FFC0
595,,Os,Cg[[Jh[@OX,X,-,-,-,-,20040000,35.843239,139.854281,00001B000000000309D83A2669817FC0
596,,Os,Or,X,-,-,-,-,20040000,35.800547,139.859226,00001B000000000309D539A669DA7FC0
597,,Os,X[p[roz[@OX@roz[,X,-,-,-,-,20040000,35.841107,139.856986,00001B000000000309D813A669B1FFC0
598,,,JCYz[@X,X,-,-,-,-,20040000,36.257126,139.158149,00001B000000000309F55426388EFFC0
599,,iFsj,H,Vl{,-,-,-,-,20040000,36.089467,139.468031,00001B000000000309E98A264E58FFC0
600,,s,xCVA@X,X,-,-,-,-,20040000,35.922191,139.389087,00001B000000000309DDC72648CBFFC0
601,,k{s,CCr,X,-,-,-,-,20040000,-,-,-
602,,@cs,JCYz[@@cX,X,-,-,-,-,20040000,36.018703,139.637242,00001B000000000309E490A65A3E7FC0
603,,Vs,@VX,X,-,-,-,-,20040000,35.76787,139.560196,00001B000000000309D2EDA654D3FFC0
604,,s,Cg[[Jh[@AIX,X,-,-,-,-,20040000,35.8067,139.714421,00001B000000000309D5A8A65FABFFC0
605,,s,}Gc@X,X,-,-,-,-,20040000,35.852839,139.808642,00001B000000000309D8E726664BFFC0
606,,s,Yawnij,,-,-,-,-,20050000,35.85868,139.65917,00001B000000000309D950265BC97FC0
607,,s,S,,-,-,-,-,20050000,35.920215,139.617519,00001B000000000309DDA3A658DB7FC0
608,,s,YawwOnsXnJ{z,{,-,-,-,-,20050000,-,-,-
609,,s,CI@YaVbsOZ^[,X,-,-,-,-,20050000,35.890745,139.731191,00001B000000000309DB912660D97FC0
610,,,JCYz[@X,X,-,-,-,-,20050000,36.060791,139.367516,00001B000000000309E7862647477FC0
611,,,xCVA@X,X,-,-,-,-,20050000,36.059427,139.368753,00001B000000000309E76DA6475DFFC0
612,,Ks,KVbsOZ^[ij,X,-,-,-,-,20050000,36.06828,139.71506,00001B000000000309E80D265FB77FC0
613,,Ks,KVbsOZ^[ij,X,-,-,-,-,20050000,36.06828,139.71506,00001B000000000309E80D265FB77FC0
614,,,JCYz[@C^[X,X,-,-,-,-,20050000,35.975564,139.466465,00001B000000000309E188264E3C7FC0
615,,s,xCVAd,X,-,-,-,-,20050000,35.915388,139.371197,00001B000000000309DD4CA64789FFC0
616,,s,R[v@X,X,-,-,-,-,20050000,35.962678,139.574128,00001B000000000309E0A02655CE7FC0
617,,Vs,,X,-,-,-,-,20050000,35.76787,139.560196,00001B000000000309D2EDA654D3FFC0
618,,s,ijhRbnsXnJ{z,X,-,-,-,-,20050000,-,-,-
619,,s,ijRLVlz[,Vlz[,-,-,-,-,20050000,35.827168,139.722357,00001B000000000309D71926603A7FC0
620,,s,JCYz[@{X,X,-,-,-,-,20060000,35.936636,139.576752,00001B000000000309DECB2655FDFFC0
621,,scs,xCVAt[hZ^[@scX,X,-,-,-,-,20060000,36.130602,139.452069,00001B000000000309EC6EA64D397FC0
622,,scs,JCYz[@scX,X,-,-,-,-,20060000,36.131618,139.449598,00001B000000000309EC81264D0CFFC0
623,,scs,xCVAd@scX,X,-,-,-,-,20060000,36.13025,139.448871,00001B000000000309EC68A64CFFFFC0
624,,[Js,xCVA,X,-,-,-,-,20060000,-,-,-
625,,[Js,xCVAd,X,-,-,-,-,20060000,36.121069,139.231333,00001B000000000309EBC3263DB3FFC0
626,,,JCY@X,X,-,-,-,-,20060000,35.977145,139.466539,00001B000000000309E1A4A64E3DFFC0
627,,,xCVAd@X,X,-,-,-,-,20060000,35.980083,139.464917,00001B000000000309E1D9264E20FFC0
628,,,xCVA@X,X,-,-,-,-,20060000,35.978761,139.46492,00001B000000000309E1C1A64E20FFC0
629,,s,@X,X,-,-,-,-,20060000,35.769991,139.449376,00001B000000000309D313A64D08FFC0
630,,s,_ChVeB@L,X,-,-,-,-,20060000,35.837472,139.722649,00001B000000000309D7D226603FFFC0
631,,s,R[v@cX,X,-,-,-,-,20070000,36.016555,139.57372,00001B000000000309E469A655C6FFC0
632,,Hs,CI[H,{,-,-,-,-,20070000,36.142706,139.541909,00001B000000000309ED48A6538A7FC0
633,,s,YawOgCij@VzH,O,-,-,-,-,20070000,35.858058,139.658591,00001B000000000309D945265BBEFFC0
634,,s,ijR[vYa@VzH,X,-,-,-,-,20070000,35.841968,139.665934,00001B000000000309D823265C42FFC0
635,,s,ijJCYz[{X@|,X,-,-,-,-,20070000,35.936636,139.576752,00001B000000000309DECB2655FDFFC0
636,,s,ij{v,,-,-,-,-,20070000,-,-,-
637,,s,ijK[f,X,-,-,-,-,20070000,35.805111,139.698449,00001B000000000309D58BA65E8C7FC0
638,,s,ijR[v@VzH,X,-,-,-,-,20070000,35.858843,139.77028,00001B000000000309D9532663997FC0
639,,Vs,T~bgXgA@VRX,X,-,-,-,-,20070000,35.764399,139.567323,00001B000000000309D2AF265553FFC0
640,,Rs,sIjEH[NiAs^RXj,X,-,-,-,-,20080000,36.005235,139.410492,00001B000000000309E39E264A4CFFC0
641,,,P[W[GXij@,H,-,-,-,-,20080000,36.054361,139.274657,00001B000000000309E7122640BFFFC0
642,,iF{sj,JCYExCVA,X,-,-,-,-,20080000,36.127054,139.68414,00001B000000000309EC2EA65D8AFFC0
643,,z,JCYz[@zX,X,-,-,-,-,20080000,35.968823,139.299295,00001B000000000309E10EA6427B7FC0
644,,s,ijR[v@X,X,-,-,-,-,20080000,35.913004,139.652365,00001B000000000309DD22265B4EFFC0
645,,s,S,,-,-,-,-,20080000,35.920215,139.617519,00001B000000000309DDA3A658DB7FC0
646,,zs,T~bg@zX,X,-,-,-,-,20080000,35.880563,139.497772,00001B000000000309DADA26506FFFC0
647,,zs,@zX,X,-,-,-,-,20080000,35.901637,139.474312,00001B000000000309DC55264EC9FFC0
648,,zJs,CIzJCN^EVbsOZ^[,X,-,-,-,-,20080000,35.882231,139.829171,00001B000000000309DAF82667BD7FC0
649,,ts,ss^Z^[,{,-,-,-,-,20080000,35.983501,139.751073,00001B000000000309E21726623F7FC0
650,,s,}Gc@aX,X,-,-,-,-,20090000,35.802768,139.586314,00001B000000000309D561A656A9FFC0
651,,cs,ijcX{Jv,X,-,-,-,-,20100000,-,-,-
652,,s,}Gc@{wOX,X,-,-,-,-,20100000,35.924186,139.580996,00001B000000000309DDEB265649FFC0
653,,zJs,ijCIzJCN^ETChVbsOZ^[VzHPX,X,-,-,-,-,20100000,35.882231,139.829171,00001B000000000309DAF82667BD7FC0
654,,zJs,ijCIzJCN^ETChVbsOZ^[VzHQX,X,-,-,-,-,20100000,35.882231,139.829171,00001B000000000309DAF82667BD7FC0
655,,zJs,ijCIzJCN^ETChVbsOZ^[VzHRX,X,-,-,-,-,20100000,35.882231,139.829171,00001B000000000309DAF82667BD7FC0
656,t,tPJsxTPVR,()JSC,X堀辚,5,1,2,-,20140311,35.770801,139.999733,00001B000000000309D3222673BB7FC0
657,t,tRsUXV|P,CI^ER,icX,3,-,1,-,20120626,35.008121,139.862085,00001B0000000003099D82266A0DFFC0
658,t,tsOlSXT|Q@RTM,()xCVAX,icX,1,-,-,-,20090416,35.579921,140.382274,00001B000000000309C5B6A68EA0FFC0
659,t,txs]VcPWUWOPTM,(jJCYz[xX,icX,1,-,-,-,20081021,35.332938,139.847779,00001B000000000309B458A6690C7FC0
660,t,tskQ|Q,CItj[^ESC,icX,2,-,2,-,20071022,35.80022,140.11243,00001B000000000309D533A67BA7FFC0
661,t,tRsUXV|P,(jbNVeBR,icX,3,-,1,-,20070410,35.008121,139.862088,00001B0000000003099D82266A0DFFC0
662,t,tscPQWO|P,JX~cX,icX,1,-,-,-,20071003,35.576748,140.380691,00001B000000000309C57D268E847FC0
663,t,YsoS|P|P,Yso,,4,-,EVP,-,19970324,35.64415,139.92322,00001B000000000309CA3AA66E59FFC0
664,t,YsCS|P,Cg[[Jh[VYX,X,5,-,EVUESQO,-,19991013,35.64282,139.92258,00001B000000000309CA22A66E4E7FC0
665,t,YsP|W|Q,YsZ^[,mI{,2,-,EVP,-,20020516,35.651,139.90257,00001B000000000309CAB6266CE67FC0
666,t,YsPT|R,Ys,,2,-,EVQESQ,-,20030911,35.62214,139.89583,00001B000000000309C8AEA66C6CFFC0
667,t,tsRPU,VbsOvU,X,1,0,0,-,19990531,35.72842,140.10384,00001B000000000309D027A67B0D7FC0
668,t,tsacVcQVR|PR,JX~acX,X,1,0,1,-,19990702,35.718192,140.097163,00001B000000000309CF6F267A94FFC0
669,t,tsP|R|P,Cg[[Jh[X,X,5,0,6,-,20020705,35.72243,140.11766,00001B000000000309CFBBA67C05FFC0
670,t,tsP|S|P,tK[fX[,X,4,0,8,-,20020705,35.72106,140.11757,00001B000000000309CFA3267C047FC0
671,t,tsuRPnV,uE},C},5,1,1,-,20021129,35.728,140.07579,00001B000000000309D0202679147FC0
672,t,tsuQPR,CIuVbsOZ^[,X,4,0,9,-,20040818,35.72784,140.07253,00001B000000000309D01D2678D9FFC0
673,t,tsacVcPWU|P,sh{Eh,h,3,0,1,-,20050706,35.72064,140.0945,00001B000000000309CF9BA67A657FC0
674,t,tDsR,CI,icX,5,-,15,-,20111222,35.711453,139.978676,00001B000000000309CEF62672407FC0
675,t,tqs1338n@,xCVAdqX,icX,1,-,-,-,20051128,35.714329,140.215196,00001B000000000309CF29A682E1FFC0
676,t,tqs1421n@,xCVAqX,icX,2,-,2,-,20071122,35.714527,140.21697,00001B000000000309CF2D2683017FC0
677,t,tqsLW1232-1@,JCYz[qX,icX,1,-,-,-,20120528,35.715752,140.216227,00001B000000000309CF43A682F47FC0
678,t,tskn^yn150X[P|R|S,[t,icXCfCX|[cKCHXC,6,-,50,-,20061012,35.893728,139.951001,00001B000000000309DBC726704E7FC0
679,t,ts865n2,@lcNjbNa@,a@,5,-,-,-,19971002,35.79145,139.89369,00001B000000000309D496266C467FC0
680,t,tsVcaPVQP,Vl{Vo[PA,{,3,-,1,-,20061002,35.775813,139.976107,00001B000000000309D37CA67211FFC0
681,t,ts3101,Zu^E,iXEf,3,-,2,-,20090127,35.80289,139.95129,00001B000000000309D5642670537FC0
682,t,tsV4124,Vgcr,iX,2,-,-,-,20090421,35.8269,139.91396,00001B000000000309D714266DB37FC0
683,t,tsZ7981,[N}[gZX,iX,2,-,1,-,20101129,35.80019,139.98541,00001B000000000309D5332672B97FC0
684,t,tsn179n1,nXe[V[,XiEfEHEj,5,-,2,-,20110412,35.812131,139.916914,00001B000000000309D60A266DE87FC0
685,t,tsaPJ1271,@lc]Va@,a@,7,-,3,-,20120830,35.777147,139.920512,00001B000000000309D394A66E297FC0
686,t,ts865n2,@lcNjbNa@,a@,5,-,-,-,19971002,35.79145,139.89369,00001B000000000309D496266C467FC0
687,t,tsVcaPVQP,Vl{Vo[PA,{,3,-,1,-,20061002,35.775813,139.976107,00001B000000000309D37CA67211FFC0
688,t,ts3101,Zu^E,iXEf,3,-,2,-,20090127,35.80289,139.95129,00001B000000000309D5642670537FC0
689,t,tsV4124,Vgcr,iX,2,-,-,-,20090421,35.8269,139.91396,00001B000000000309D714266DB37FC0
690,t,tsZ7981,[N}[gZX,iX,2,-,1,-,20101129,35.80019,139.98541,00001B000000000309D5332672B97FC0
691,t,tsn179n1,nXe[V[,XiEfEHEj,5,-,2,-,20110412,35.812131,139.916914,00001B000000000309D60A266DE87FC0
692,t,tsaPJ1271,@lc]Va@,a@,7,-,3,-,20120830,35.777147,139.920512,00001B000000000309D394A66E297FC0
693,t,tssC23811@O12M,xCVAsX,X,2,-,4,-,20060526,35.541616,140.117788,00001B000000000309C305267C087FC0
694,t,tss321n1,X[p[roz[X,iX,1,-,-,-,20100518,35.52196,140.18341,00001B000000000309C1A32680A57FC0
695,t,tsswOynn5X7issc{m786nj,JCYz[sX,iX,2,-,3,-,20100331,35.506407,140.103698,00001B000000000309C08B267B0AFFC0
696,t,tssX432,AIs,XHXfVZ辚f佶,2,-,9,-,20131028,35.508303,140.101466,00001B000000000309C0AD267AE27FC0
697,t,tDs{,DsnhZ^[,,5,-,1,-,20030910,35.708322,139.953971,00001B000000000309CEBDA670837FC0
698,t,tqsz2972-1,qsZ^[,W,2,-,1,-,20071219,35.851864,140.137628,00001B000000000309D8D5A67D6D7FC0
699,t,tqs5-4-6,qkZ^[{,W,2,-,1,-,20100402,35.87522,140.01524,00001B000000000309DA79A674D27FC0
700,t,tsUT|PQSM,s{,fC{CCC,5,1,3,-,20080328,35.866974,139.986555,00001B000000000309D9E5A672CDFFC0
701,t,tsRQP豫Q豫RPS,[W,icXCHXC{,2,-,22,-,20080908,35.882415,139.9691,00001B000000000309DAFB267193FFC0
702,t,tstVOR|P,[N}[gt,icX,2,-,-,-,19990426,35.812071,139.958095,00001B000000000309D6092670CDFFC0
703,t,tsXTT|PXTU|PXUP|QXUQ|PXUR|P,qrX,icX,2,-,-,-,20000607,-,-,-
704,t,ttst4-1-3,ijJX~X,cX,1,0,-,-,20121207,35.615138,140.192019,00001B000000000309C8302681407FC0
705,t,tts112Q12M,ijCI^E@@@@@,cX,1,0,-,-,20130521,35.663472,140.117098,00001B000000000309CB96267BFBFFC0
706,t,ttsllc24515161819@L1豫101113@14@,ijCI[VsSVzH@`ab@@@@,cX,6,0,17,-,20131107,35.652492,140.032115,00001B000000000309CAD0A676027FC0
707,t,ttsllc245PS@L1W,ijCI[VsSVzH@c@@@@,cX,5,0,3,-,20131118,35.652492,140.032115,00001B000000000309CAD0A676027FC0
708,t,ttsllc22-45-9@L1-5,ijCI[VsSVzH@c@@@,cX,6,0,7,-,20131118,35.652492,140.032115,00001B000000000309CAD0A676027FC0
709,t,ttslL1-6,ijCI[VsSVzH@d@@@,cX,6,0,5,-,20131118,35.65448,140.02879,00001B000000000309CAF4A675C67FC0
710,t,tts419,ijtZnsXnJr,prziEZ^[j,15,1,8,-,20050217,-,-,-
711,t,ttst1273T,tst{{,CwZ,4,0,1,-,20050412,35.6013,140.13777,00001B000000000309C737267D6FFFC0
712,t,tts22621,ijtsZ^[,iZ^[j,2,1,2,-,20050613,35.566661,140.175875,00001B000000000309C4C7A6801DFFC0
713,t,ttsu1606-1PRM,uX,iX,2,0,1,-,20050808,-,-,-
714,t,ttsF1-10-1@tx@{,x{V,x@,11,2,8,-,20060323,35.602905,140.123285,00001B000000000309C754267C6B7FC0
715,t,tts4-16-4,sX,iX,1,0,-,-,20060821,35.55096,140.17216,00001B000000000309C3AD267FDAFFC0
716,t,tts2-23614-1,tHizjo`xe{ij,pHxe{,1,0,-,-,20070529,-,-,-
717,t,tts2-2602-1,tHizjo`xe{ij,pHxe{,1,0,-,-,20070529,-,-,-
718,t,tts`1-28-6,P[Y][gr,XiHXj,3,1,1,-,20080229,35.60526,140.10048,00001B000000000309C77EA67AD0FFC0
719,t,tts37-1-2-3,CIVbsOZ^[,cX,3,0,4,-,20080508,35.543962,140.17314,00001B000000000309C32F267FECFFC0
720,t,tts11,tsZ^[,,3,0,3,-,20080521,35.66304,140.06853,00001B000000000309CB8EA67891FFC0
721,t,tts4236TO,tsZ^[,,3,0,2,-,20080818,35.635583,140.10521,00001B000000000309C9A0267B25FFC0
722,t,ttstR422-13M,R[vRXk`l,X,1,0,-,-,20081015,35.630012,140.127275,00001B000000000309C93C267CB2FFC0
723,t,tts11075nQ,ijX[p[r,cX,2,0,0,-,20111018,35.691172,140.092475,00001B000000000309CD89267A40FFC0
724,t,ttsV1482-9,GNZVI[,tLVlz[,3,0,2,-,20111027,35.683868,140.091275,00001B000000000309CD05A67A2AFFC0
725,t,tts{2-5-22,ts{,,3,0,1,-,19970401,35.58054,140.13696,00001B000000000309C5C1A67D617FC0
726,t,tts4-417-25,Cg[[JX,X,4,0,-,-,19970912,35.65572,140.05139,00001B000000000309CB0AA6775D7FC0
727,t,tts@1-6-1,tsy,,1,2,2,-,19971217,35.60507,140.12662,00001B000000000309C77B267CA77FC0
728,t,ttss24,JX~sX,X,1,0,-,-,19971226,35.609095,140.146834,00001B000000000309C7C3A67E137FC0
729,t,ttsR173-1,PAnEXeN[l,Vl{,5,0,-,-,19981120,35.664935,140.138928,00001B000000000309CBB0A67D84FFC0
730,t,tts{Q|T|QV,R~jeBZ^[,WEE},3,0,2,-,19980224,35.58059,140.13628,00001B000000000309C5C2A67D557FC0
731,t,tts2-7-6,,,2,0,1,-,19980409,35.55616,140.16434,00001B000000000309C40AA67F4E7FC0
732,t,ttstkJRRR|Q,tstvU,{iVlZ^[j,1,0,-,-,19991201,35.610709,140.203723,00001B000000000309C7E0A682137FC0
733,t,ttst1273-2,tsta@,a@,5,1,8,-,19991228,35.6013,140.13777,00001B000000000309C737267D6FFFC0
734,t,tts1-25-4,ts,,2,0,1,-,20000523,35.624741,140.109748,00001B000000000309C8DD267B777FC0
735,t,tts330-50,VbsOvU,X,5,0,-,-,20000712,35.657292,140.117027,00001B000000000309CB27267BFA7FC0
736,t,ttsu7-1,uVbsOvU,X,3,0,-,-,20000814,35.52074,140.26785,00001B000000000309C18D2686957FC0
737,t,tts_c2-12-65,tsvU,Vl{,2,0,1,-,20010605,35.544529,140.229795,00001B000000000309C339A683E87FC0
738,t,ttsV1-25-1,Z^[,XE,3,0,-,-,20010703,35.61789,140.11185,00001B000000000309C862267B9D7FC0
739,t,ttsRPVUU|Q,ts,EWE,2,1,10,-,20020611,35.575632,140.17788,00001B000000000309C569268041FFC0
740,t,tts2-425-1,ts,,2,0,1,-,20020524,35.626431,140.094006,00001B000000000309C8FBA67A5C7FC0
741,t,ttsZ75-1,Cz[Z^[tk,X,2,0,-,-,20020502,35.657025,140.141852,00001B000000000309CB22267DB97FC0
742,t,tts259,ijtsZ^[,EER~jeBZ^[,2,1,1,-,20020517,35.681489,140.096936,00001B000000000309CCDAA67A90FFC0
743,t,ttst{3819,ts{w,{,2,0,1,-,20020821,35.596491,140.173481,00001B000000000309C6E0A67FF2FFC0
744,t,ttsVh2-16-10,ts_,,3,0,1,-,20030804,35.6066,140.11409,00001B000000000309C796A67BC5FFC0
745,t,tts1-15,tsX|[cs,iTbJ[j,4,0,3,-,20030819,35.574745,140.124296,00001B000000000309C559267C7D7FC0
746,t,ttstL125819206364,tstZ^[,iZ^[j,4,1,3,-,20031219,35.633331,140.155137,00001B000000000309C977A67EA87FC0
747,t,ttst138,ts,dSgQ{,2,0,2,-,20040219,35.62641,140.16519,00001B000000000309C8FB267F5D7FC0
748,t,ttslt328,ijSACZ^[,CiWEzeEj,9,1,-,-,20040311,35.65002,140.05586,00001B000000000309CAA42677AD7FC0
749,t,ttsV285n@204M,tX|[cZ^[Z,,3,0,-,-,20040331,35.648555,140.120135,00001B000000000309CA89A67C327FC0
750,t,ttslV`244nP,]Mp{,XP[gEj,2,0,1,-,20040331,-,-,-
751,t,ttstC622P,ijtsEt},E},1,0,-,-,20040413,35.58461,140.22986,00001B000000000309C60AA683E97FC0
752,t,tts434n18,ts}@@,},2,0,1,-,20040607,35.689225,140.119992,00001B000000000309CD66267C2FFFC0
753,t,tts6-7,ijCg[[Jh[hX,X,3,0,-,-,20040419,35.587494,140.122712,00001B000000000309C63EA67C60FFC0
754,t,tts461-8,ijtsR~jeBZ^[,prziR~jeBZ^[j,3,0,1,-,20040510,35.663669,140.126057,00001B000000000309CB9A267C9D7FC0
755,t,ttsl^5-15-1,ijtslnz[Z^[,iZ^[j,5,1,3,-,20040512,35.640538,140.063052,00001B000000000309C9F9A6782EFFC0
756,t,tXscS18Q,}bNXo[cX,X,1,-,-,-,-,35.37671,139.94409,00001B000000000309B76CA66FD1FFC0
757,t,tXsc3-1-1,OAEgbgp[NX,XHX,1,-,-,-,20131209,35.434633,139.935432,00001B000000000309BB7F266F35FFC0
758,t,tXscO13,JCY[Xc,X,1,-,-,-,20121214,35.432838,139.934275,00001B000000000309BB5F266F20FFC0
759,t,tXszn14,CI[X,X,3,-,10,-,20140919,35.365174,139.907978,00001B000000000309B69D266D47FFC0
760,s,aJ,^CYXNGArB,XE,8,4,-,-,19940000,35.685963,139.702505,00001B000000000309CD2B265ED57FC0
761,s,,},wZE},2,1,-,-,19950000,35.681609,139.622929,00001B000000000309CCDCA6593CFFC0
762,s,n,IULVbsOp[N,X,1,1,-,-,19950000,35.732178,139.582782,00001B000000000309D06B26566A7FC0
763,s,,xa@,a@,6,1,-,-,19950000,35.754127,139.828065,00001B000000000309D1F62667A97FC0
764,s,],a@,a@,8,1,-,-,19950000,35.741792,139.882905,00001B000000000309D118266B847FC0
765,s,c,cwOJ,XEE,18,3,-,-,19950000,-,-,-
766,s,aJ,^CYXNGArA,XEVY{,14,4,-,-,19950000,35.685963,139.702505,00001B000000000309CD2B265ED57FC0
767,s,cJ,T~bgXgA,X,2,1,-,-,19960000,35.650702,139.659976,00001B000000000309CAB0A65BD7FFC0
768,s,,OIKr,X,3,0,-,-,19960000,35.763886,139.684677,00001B000000000309D2A5A65D947FC0
769,s,],]T~bg,X,2,0,-,-,19960000,35.711071,139.904109,00001B000000000309CEEF266D01FFC0
770,s,c,tH[,EWEW,12,3,-,-,19960000,35.676657,139.7643,00001B000000000309CC83A6632D7FC0
771,s,c,_c,{iEjEZ,25,2,-,-,19960000,35.699077,139.754686,00001B000000000309CE172662807FC0
772,s,`,Rr,XEE,13,3,-,-,19960000,35.665455,139.711166,00001B000000000309CBBA265F70FFC0
773,s,],TXg[g,XEHXE,5,0,-,-,19960000,35.695814,139.829045,00001B000000000309CDDCA667BAFFC0
774,s,c,Hc`,`,2,0,-,-,19960000,35.549393,139.779839,00001B000000000309C3912664457FC0
775,s,],Tn{ij,Wiz[EZ^[E{j,9,1,-,-,19970000,35.697592,139.824539,00001B000000000309CDFCA66769FFC0
776,s,cJ,{tBR@qr,X,3,1,-,-,19970000,35.650578,139.667092,00001B000000000309CAAE265C57FFC0
777,s,r,}GcrX,X,2,0,-,-,19970000,-,-,-
778,s,,[N}[g,X,2,0,-,-,19970000,35.785704,139.78536,00001B000000000309D42EA664A87FC0
779,s,],TXg[gizj,XEHXE,2,0,-,-,19970000,35.695814,139.829045,00001B000000000309CDDCA667BAFFC0
780,s,i,{ij,Vl{E{EZ,9,1,-,-,19970000,35.627793,139.716788,00001B000000000309C914265FD67FC0
781,s,qs,ijR[vRX,X,1,0,-,-,19970000,35.654693,139.288048,00001B000000000309CAF82641B0FFC0
782,s,s,gR[v,X,2,0,-,-,19970000,35.72176,139.460013,00001B000000000309CFAFA64DC87FC0
783,s,nc,[}Cr,X,3,0,-,-,19980000,35.727571,139.815186,00001B000000000309D0182666C17FC0
784,s,,T~bgXgAcX,X,2,1,-,-,19980000,35.692854,139.639193,00001B000000000309CDA7265A617FC0
785,s,n,ijRm}Jj,X,3,0,-,-,19980000,35.744769,139.604219,00001B000000000309D14DA657EBFFC0
786,s,],Vl{,a@,5,1,-,-,19980000,35.699581,139.894234,00001B000000000309CE20266C507FC0
787,s,,UwKZ^[,}E{iEWj,6,1,-,-,19980000,35.717363,139.789842,00001B000000000309CF60A664F97FC0
788,s,,{,X,2,0,-,-,19980000,-,-,-
789,s,qs,Cg[[JqX,X,6,0,-,-,19980000,35.637843,139.293554,00001B000000000309C9C9264213FFC0
790,s,qs,g^J[qX,X,2,0,-,-,19980000,35.651866,139.300464,00001B000000000309CAC5A642907FC0
791,s,{s,zs_{,a@,4,1,-,-,19980000,35.668197,139.523841,00001B000000000309CBEBA652457FC0
792,s,{s,EBO,a@,4,1,-,-,19980000,35.669672,139.435279,00001B000000000309CC06264C0B7FC0
793,s,{s,ijr,X,1,1,-,-,19980000,-,-,-
794,s,cs,ijR[vcX,X,2,0,-,-,19980000,35.58609,139.392898,00001B000000000309C625A649107FC0
795,s,s{6-2-5,Vl{JgA,Vl{,3,1,3,-,19981015,35.683371,139.40172,00001B000000000309CCFCA649AEFFC0
796,s,s,LVmri}GcqXj,X,2,0,-,-,19980000,35.713679,139.4573,00001B000000000309CF1E264D977FC0
797,s,s,RsA,X,2,0,-,-,19980000,35.72391,139.297733,00001B000000000309CFD626425F7FC0
798,s,],CtTX,X,2,1,-,-,19990000,35.697804,139.841149,00001B000000000309CE00266894FFC0
799,s,c,cx{,EW,5,1,-,-,19990000,35.559799,139.715449,00001B000000000309C44C265FBE7FC0
800,s,,T~bgX,X,2,1,-,-,19990000,35.726129,139.613041,00001B000000000309CFFE26588AFFC0
801,s,n,Ct_X,X,3,0,-,-,19990000,35.733808,139.5902,00001B000000000309D088A656EFFFC0
802,s,n,ijFX,X,1,0,-,-,19990000,-,-,-
803,s,,V{A,XEHX,8,1,-,-,19990000,-,-,-
804,s,,CtX,XE,2,2,-,-,19990000,35.706806,139.667129,00001B000000000309CEA2A65C587FC0
805,s,`,ijdV,XEEIz[,48,5,-,-,19990000,35.66437,139.76237,00001B000000000309CBA6A6630AFFC0
806,s,],tWN[Jv,fEXE,6,1,-,-,19990000,-,-,-
807,s,i,ilnsXnJ,XE,23,2,-,-,19990000,-,-,-
808,s,c,}GcVJX,X,3,0,-,-,19990000,35.551175,139.732814,00001B000000000309C3B12660F6FFC0
809,s,,uOVbsOZ^[,XE,4,1,-,-,19990000,35.778526,139.68677,00001B000000000309D3AD265DB9FFC0
810,s,,TeB,XEfE,6,1,-,-,19990000,35.770147,139.660852,00001B000000000309D316A65BE77FC0
811,s,,V{B,XEVZ,6,1,-,-,19990000,-,-,-
812,s,],Cg[[J,X,5,0,-,-,19990000,-,-,-
813,s,qs,Cg[[J,X,6,0,-,-,19990000,-,-,-
814,s,qs,Cwwtqa@,a@,10,0,-,-,19990000,35.673777,139.35708,00001B000000000309CC4FA6468B7FC0
815,s,s,Cg[[J,X,7,1,-,-,19990000,-,-,-
816,s,Os,a@,a@,6,1,-,-,19990000,35.688801,139.564841,00001B000000000309CD5E2655277FC0
817,s,Os,R[vOX,X,1,0,-,-,19990000,35.682768,139.580763,00001B000000000309CCF1A65645FFC0
818,s,cs,cVbsOZ^[,X,2,0,-,-,19990000,35.510047,139.470818,00001B000000000309C0CCA64E8AFFC0
819,s,cs,_hr,X,6,0,-,-,19990000,35.584317,139.482437,00001B000000000309C605A64F5BFFC0
820,s,s,sZ^[,{,5,0,-,-,19990000,35.71076,139.364085,00001B000000000309CEE9A64709FFC0
821,s,as,R[vakX,X,2,0,-,-,19990000,35.745611,139.416473,00001B000000000309D15CA64AB8FFC0
822,s,Rs,_CG[RX,X,3,0,-,-,19990000,35.73558,139.37889,00001B000000000309D0A82648147FC0
823,s,cJ,T~bgXgAV[X,ZEX,1,1,-,-,20000000,35.617639,139.650951,00001B000000000309C85DA65B357FC0
824,s,,FX,X,2,0,-,-,20000000,35.692002,139.617159,00001B000000000309CD982658D4FFC0
825,s,,FX,X,2,0,-,-,20000000,35.770203,139.817133,00001B000000000309D317A666E47FC0
826,s,,Ct,X,2,0,-,-,20000000,-,-,-
827,s,],FX,X,2,0,-,-,20000000,35.645897,139.87233,00001B000000000309CA5A266AC5FFC0
828,s,],gsbNvUJr,XEVZE,5,1,-,-,20000000,35.671773,139.837064,00001B000000000309CC2BA6684B7FC0
829,s,qs,[YqxX,X,2,1,-,-,20000000,35.653037,139.351348,00001B000000000309CADAA646247FC0
830,s,s,wkwOynnTXr,X,9,3,-,-,20000000,-,-,-
831,s,Os,OSMVzH,X,1,0,-,-,20000000,-,-,-
832,s,s,FX,X,2,0,-,-,20000000,35.697836,139.44574,00001B000000000309CE01264CC77FC0
833,s,],ijafBPAV,Vl{,6,0,-,-,20010000,35.665402,139.832308,00001B000000000309CBB92667F5FFC0
834,s,,F,iX,1,0,-,-,20010000,-,-,-
835,s,,F,iX,1,0,-,-,20010000,-,-,-
836,s,c,XJv,X堀HXEEWE,30,4,-,-,20010000,-,-,-
837,s,,Oz{XVr,SXEXE,14,4,-,-,20010000,35.685024,139.774122,00001B000000000309CD1A2663DE7FC0
838,s,`,ZXeBze,ze,13,0,-,-,20010000,35.651089,139.748872,00001B000000000309CAB7A66217FFC0
839,s,],pi\jbNZ^[,WEX^WIEc,4,1,-,-,20010000,35.633081,139.790488,00001B000000000309C973266504FFC0
840,s,,kZwnsXnJ{z,X堀辚M[,13,4,-,-,20010000,-,-,-
841,s,s,a@,a@,3,1,-,-,20010000,35.703526,139.547296,00001B000000000309CE672653EB7FC0
842,s,Os,i)OVbsOZ^[,iX,3,1,-,-,20010000,-,-,-
843,s,s,ijFVX,X堀HX堀辚,6,1,-,-,20010000,35.743236,139.328026,00001B000000000309D1322644807FC0
844,s,,UB[,iX,5,0,-,-,20010000,35.786165,139.349471,00001B000000000309D436A646027FC0
845,s,c,T~bgX,iX,3,0,-,-,20020000,35.572368,139.690872,00001B000000000309C52EA65E03FFC0
846,s,cJ,{r,iX,2,2,-,-,20020000,35.636387,139.58761,00001B000000000309C9AEA656C0FFC0
847,s,n,T~bgX,iX,3,1,-,-,20020000,35.773678,139.585742,00001B000000000309D35626569F7FC0
848,s,n,a@,a@,4,1,-,-,20020000,35.746663,139.579576,00001B000000000309D16FA656307FC0
849,s,c,ijVzH,XEA{E,21,3,-,-,20020000,35.560599,139.380805,00001B000000000309C45AA648367FC0
850,s,nc,ijlJv,XEHXEfE,45,2,-,-,20020000,-,-,-
851,s,aJ,ijFrVzH,XEHXE,15,2,-,-,20020000,35.656817,139.695505,00001B000000000309CB1EA65E577FC0
852,s,n,}_d@@ebNh@_X,iX,4,1,-,-,20020000,35.737875,139.615487,00001B000000000309D0D1A658B6FFC0
853,s,zs,a@,a@,8,0,-,-,20020000,35.650553,139.524667,00001B000000000309CAADA652547FC0
854,s,cs,JCYz[cX,X,3,0,-,-,20020000,35.601446,139.374766,00001B000000000309C73A2647C9FFC0
855,s,s,^`GXr,X,4,0,-,-,20020000,35.715565,139.346835,00001B000000000309CF402645D37FC0
856,s,s,CIVbsOZ^[,X,4,0,-,-,20020000,35.716238,139.37306,00001B000000000309CF4C2647AB7FC0
857,s,s,ijr,X,7,0,-,-,20020000,35.697828,139.445766,00001B000000000309CE00A64CC7FFC0
858,s,s,(jTMC,X,8,0,-,-,20020000,-,-,-
859,s,`,()QvVzH,Vlz[,8,1,-,-,20030000,-,-,-
860,s,Vh,LVlz[,Vlz[,9,0,-,-,20030000,35.708349,139.738478,00001B000000000309CEBE26615CFFC0
861,s,],Vl{,Vlz[,7,4,-,-,20030000,-,-,-
862,s,cJ,()T~bgXgA,X,1,1,-,-,20030000,35.656794,139.60921,00001B000000000309CB1E265845FFC0
863,s,cJ,()LVlz[,Vlz[,7,0,-,-,20030000,-,-,-
864,s,cJ,i)ijO{,a@,5,0,-,-,20030000,35.640585,139.670759,00001B000000000309C9FAA65C99FFC0
865,s,cJ,[N}[gX,X,2,0,-,-,20030000,35.619839,139.641277,00001B000000000309C885265A86FFC0
866,s,,AA,LVlz[,3,1,-,-,20030000,35.720182,139.610031,00001B000000000309CF93265854FFC0
867,s,,aYr,iX,2,1,-,-,20030000,-,-,-
868,s,,VRa@,a@,7,1,-,-,20030000,35.763446,139.677606,00001B000000000309D29E265D14FFC0
869,s,n,()r,X,2,1,-,-,20030000,-,-,-
870,s,n,(jX,X,2,0,-,-,20030000,35.7225,139.591564,00001B000000000309CFBD2657087FC0
871,s,,c@l@,a@,5,0,-,-,20030000,35.784417,139.750201,00001B000000000309D417A6622FFFC0
872,s,,T~bgXgAX,X,2,0,-,-,20030000,35.740812,139.877124,00001B000000000309D106A66B1C7FC0
873,s,c,(jhoVuAKIBAvr,XEHXE,9,6,-,-,20030000,35.699214,139.77298,00001B000000000309CE19A663C9FFC0
874,s,c,(j凵1Xiw凵kjJvA/BECVzH,zeHXX堀,282917,444,-,-,20030000,-,-,-
875,s,c,Ht_CrviHtPXj,EWEWEHX,31,2,-,-,20030000,35.69925,139.772157,00001B000000000309CE1AA663BAFFC0
876,s,c,_cyrVzH,,20,2,-,-,20030000,35.693631,139.766146,00001B000000000309CDB526634EFFC0
877,s,,()I[rbN{rVzH,,13,2,-,-,20030000,35.676741,139.769386,00001B000000000309CC85266388FFC0
878,s,,(jOVVzH,,39,4,-,-,20030000,35.686331,139.773036,00001B000000000309CD31A663CAFFC0
879,s,`,SKANv,EHXE{,23,3,-,-,20030000,-,-,-
880,s,`,OcOv,X,43,2,-,-,20030000,-,-,-
881,s,`,(j~bh^EvWFNgaVzHiWj,W,25,4,-,-,20030000,35.665814,139.731062,00001B000000000309CBC0A660D77FC0
882,s,`,(j~bh^EvWFNgaVzHiXj,EXEHX,25,4,-,-,20030000,35.665814,139.731062,00001B000000000309CBC0A660D77FC0
883,s,],(jCI_VbsOZ^[,XEHXEf,2,0,-,-,20030000,35.648633,139.802242,00001B000000000309CA8B2665D87FC0
884,s,],(jVZ^[r,EX,11,0,-,-,20030000,35.643676,139.826418,00001B000000000309CA3226678BFFC0
885,s,],(js`rVzH,EXE,33,2,-,-,20030000,35.655961,139.797086,00001B000000000309CB0F26657BFFC0
886,s,i,(jGvWFNg,,25,2,-,-,20030000,-,-,-
887,s,cJ,(jTNrACH,Vlz[,10,1,-,-,20030000,35.648816,139.595744,00001B000000000309CA8EA657537FC0
888,s,n,(jVwwna@,a@,8,2,-,-,20030000,35.742148,139.615019,00001B000000000309D11EA658AE7FC0
889,s,,()Vl{zXsAanH,Vl{Ea@,9,0,-,-,20030000,35.772477,139.843317,00001B000000000309D340A668BBFFC0
890,s,],ijm@]a@@zH,a@,5,0,-,-,20030000,35.728636,139.893376,00001B000000000309D02B266C40FFC0
891,s,qs,VeBVbsOZ^[,Z睽HX,4,1,-,-,20030000,35.632394,139.328164,00001B000000000309C967264482FFC0
892,s,{s,()f}[NC{,Vlz[,4,1,-,-,20030000,35.673013,139.486086,00001B000000000309CC42264F9DFFC0
893,s,cs,Ja@,a@,6,0,-,-,20030000,35.523109,139.472445,00001B000000000309C1B7A64EA87FC0
894,s,as,ur,X,5,0,-,-,20030000,-,-,-
895,s,as,m,Vlz[,3,0,-,-,20030000,35.746866,139.419614,00001B000000000309D173A64AF17FC0
896,s,~s,JCYz[~C^[X,X,2,0,-,-,20030000,35.792647,139.314728,00001B000000000309D4ABA643917FC0
897,s,,ijxr[UX,X,1,0,-,-,20030000,35.759498,139.359319,00001B000000000309D256A646B3FFC0
898,s,,i[VOz[@@@@@@@@@@@@@@@@@@@@@@@@@@@@@@@@@@@@@,Vlz[,14,0,-,-,20040000,35.706564,139.789104,00001B000000000309CE9E2664EBFFC0
899,s,,nrp[N@@@@@@@@@@@@@@@@@@@@@@@@@@@@@@@@@@@@@@@@@,a@,5,1,-,-,20040000,35.631647,139.692523,00001B000000000309C959A65E217FC0
900,s,c,R[W[nEX@@@@@@@@@@@@@@@@@@@@@@@@@@@@@@@@@@@@@@,a@,5,0,-,-,20040000,35.563253,139.706016,00001B000000000309C48AA65F147FC0
901,s,c,jJVlz[@@@@@@@@@@@@@@@@@@@@@@@@@@@@@@@@@@@@@@,Vlz[,5,0,-,-,20040000,35.559271,139.700017,00001B000000000309C442A65EA87FC0
902,s,cJ,Oa@@@@@@@@@@@@@@@@@@@@@@@@@@@@@@@@@@@@@@@@@@@,a@,8,0,-,-,20040000,35.640751,139.669194,00001B000000000309C9FDA65C7D7FC0
903,s,cJ,ACun@@@@@@@@@@@@@@@@@@@@@@@@@@@@@@@@@@@@@@@@@@@@@,Vlz[,3,0,-,-,20040000,35.630721,139.680489,00001B000000000309C948A65D48FFC0
904,s,,X@@@@@@@@@@@@@@@@@@@@@@@@@@@@@@@@@@@@@@@@,iX,2,0,-,-,20040000,35.746061,139.843184,00001B000000000309D1652668B97FC0
905,s,c,(jJp[Nrv,ze,24,4,-,-,20040000,35.674705,139.760659,00001B000000000309CC60A662EBFFC0
906,s,c,()wdFJv@,HXE,42,4,-,-,20040000,-,-,-
907,s,c,()wdFJv@k,X堀HX,43,4,-,-,20040000,-,-,-
908,s,c,ijiq{w{r,w{izeW辚X堀j,35,4,-,-,20040000,-,-,-
909,s,c,V,X堀,38,3,-,-,20040000,-,-,-
910,s,c,()UDXrviHt3|1Xj,iX堀,22,3,-,-,20040000,-,-,-
911,s,c,iOEc{,,23,3,-,-,20040000,35.693973,139.753628,00001B000000000309CDBBA6626D7FC0
912,s,c,LywO1sXnJ{z,{,21,4,-,-,20040000,-,-,-
913,s,c,ijVrVzH,X堀,38,4,-,-,20040000,35.68257,139.764303,00001B000000000309CCEE26632D7FC0
914,s,,()v,zeE,25,2,-,-,20040000,-,-,-
915,s,,{Mv,X堀,11,3,-,-,20040000,35.681157,139.772476,00001B000000000309CCD4A663C0FFC0
916,s,,ijdFv,c亥X,20,3,-,-,20040000,-,-,-
917,s,`,()YAChnVzH,Z睽辚X,48,1,-,-,20040000,35.63727,139.750269,00001B000000000309C9BEA66230FFC0
918,s,`,()Oc@chVzH,Z睽,28,0,-,-,20040000,35.63197,139.73319,00001B000000000309C95F2660FD7FC0
919,s,`,()ZFrVzH,,25,3,-,-,20040000,35.662218,139.760065,00001B000000000309CB7FA662E17FC0
920,s,`,()l{TChvWFNg,X,37,4,-,-,20040000,35.666151,139.761693,00001B000000000309CBC6A662FE7FC0
921,s,`,PnsXnJ{zH,EpiX,26,2,-,-,20040000,-,-,-
922,s,`,{rfBO,EX,21,3,-,-,20040000,35.656996,139.758586,00001B000000000309CB21A662C6FFC0
923,s,`,()SFYlrVzH,ze,17,1,-,-,20040000,-,-,-
924,s,`,TTBSJv@A1,iX,39,3,-,-,20040000,-,-,-
925,s,`,TTBSJv@A2{,,5,0,-,-,20040000,-,-,-
926,s,`,ij~bh^EvWFNg`cdVzHizej,ze,54,5,-,-,20040000,35.665814,139.731062,00001B000000000309CBC0A660D77FC0
927,s,`,ij~bh^EvWFNg`cdVzHiEXj,X堀HX,54,5,-,-,20040000,35.665814,139.731062,00001B000000000309CBC0A660D77FC0
928,s,`,ijVSrVzH,,22,1,-,-,20040000,35.678404,139.733197,00001B000000000309CCA32660FDFFC0
929,s,`,vXze,ze,30,1,-,-,20040000,35.659073,139.748069,00001B000000000309CB472662097FC0
930,s,],ijtWerCsSX^WI,erX^WIX,7,1,-,-,20040000,35.620306,139.778704,00001B000000000309C88DA66430FFC0
931,s,i,wRnsXnJ@VzH,EXE,22,1,-,-,20040000,-,-,-
932,s,c,`@q^[~irVzH,`,9,0,-,-,20040000,35.550176,139.788733,00001B000000000309C39F2664E57FC0
933,s,c,Cg[[Jh[XXVzH,X,6,0,-,-,20040000,35.586479,139.733046,00001B000000000309C62CA660FAFFC0
934,s,cJ,()cJvVzHiG~nj,X,15,1,-,-,20040000,-,-,-
935,s,cJ,()wUXJr,X,8,1,-,-,20040000,-,-,-
936,s,cJ,RXWfXnv,LVlz[,7,1,-,-,20040000,35.63461,139.63503,00001B000000000309C98EA65A16FFC0
937,s,aJ,RwXv,wZ,27,3,-,-,20040000,35.684173,139.699967,00001B000000000309CD0B265EA77FC0
938,s,,@l@c@a@{H,a@,3,1,-,-,20040000,35.788312,139.639285,00001B000000000309D45DA65A637FC0
939,s,,()Cg[[Jh[VTLVbsOZ^[v,X堀f佶,5,1,-,-,20040000,35.764013,139.853203,00001B000000000309D2A826696DFFC0
940,s,s,zaa@,a@,4,1,-,-,20040000,35.716457,139.565349,00001B000000000309CF502655307FC0
941,s,zs,A[or@@@@@@@@@@@@@@@@@@@@@@@@@@@@@@@@@@@@@@@@@@,iX,4,0,-,-,20040000,-,-,-
942,s,s,ijFa@                                     @@@@@@@@@@@@@@@ @@,a@,9,1,-,-,20040000,35.71661,139.349241,00001B000000000309CF52A645FE7FC0
943,s,s,ijaXJ@OXJv@A                                                         ,iX堀,4,1,-,-,20040000,-,-,-
944,s,s,ijJCYz[X                                @@@@@@@@@@@@@@@@ @@@@@,iX,1,0,-,-,20040000,35.715913,139.366436,00001B000000000309CF46264733FFC0
945,s,s,ijVbsOZ^[                                                        ,iX,5,1,-,-,20040000,35.640986,139.436036,00001B000000000309CA01A64C18FFC0
946,s,s,ijR[vtX                              @@@@@@@@@@@@@@@@@@,iX,2,0,-,-,20040000,35.625239,139.466066,00001B000000000309C8E6264E357FC0
947,s,s,wOX,KX,2,0,-,-,20040000,35.727045,139.513428,00001B000000000309D00EA65189FFC0
948,s,s,}bNo[cvX,iX,2,0,-,-,20040000,35.724241,139.528617,00001B000000000309CFDC26529B7FC0
949,s,,VlfCT[rXZ^[ijsV@@@@@@@@@@@@@@@@@@@@@@@@@@@@@@@@@@@@@@@@@@@@@@@@@@@@@@@@@@@@@@@@@@@@@@@@@@@@@@@@,VlZ^[,1,0,-,-,20040000,35.771067,139.351108,00001B000000000309D32726461FFFC0
950,s,c,v,,5,0,-,-,20050000,-,-,-
951,s,c,Ov,,6,0,-,-,20050000,-,-,-
952,s,i,@lO,{Vlz[Ef,4,1,-,-,20050000,35.612096,139.711856,00001B000000000309C7F9A65F7D7FC0
953,s,c,ACuv,Vlz[,3,0,-,-,20050000,35.581085,139.692853,00001B000000000309C5CBA65E277FC0
954,s,c,ijctLVlz[,Vlz[,5,0,-,-,20050000,-,-,-
955,s,cJ,Oa@,a@,8,1,-,-,20050000,35.640235,139.668723,00001B000000000309C9F4265C757FC0
956,s,cJ,jJLVlz[,Vlz[,4,1,-,-,20050000,35.648403,139.604468,00001B000000000309CA872657F07FC0
957,s,cJ,cJO_c,Vlz[,3,0,-,-,20050000,35.62051,139.63441,00001B000000000309C891265A0B7FC0
958,s,cJ,cJp,Vlz[,3,0,-,-,20050000,35.632222,139.626282,00001B000000000309C963A659797FC0
959,s,aJ,(jSWIRL,X堀HX,5,2,-,-,20050000,35.66738,139.706906,00001B000000000309CBDCA65F247FC0
960,s,,a@,a@,4,0,-,-,20050000,35.708787,139.667351,00001B000000000309CEC6265C5C7FC0
961,s,k,@l,{Vlz[,5,0,-,-,20050000,35.763633,139.728431,00001B000000000309D2A12660A7FFC0
962,s,,g^ijVX,V[[iWj,2,0,-,-,20050000,35.778443,139.77612,00001B000000000309D3ABA664027FC0
963,s,,T~bgij,X,2,0,-,-,20050000,-,-,-
964,s,,@lcP,Vl{,6,0,-,-,20050000,35.756194,139.857046,00001B000000000309D21B2669B2FFC0
965,s,,a@,a@,5,1,-,-,20050000,35.763244,139.865763,00001B000000000309D29A266A4FFFC0
966,s,],]r,X,2,0,-,-,20050000,-,-,-
967,s,c,ij凵P|PvzH,zeX堀,37,4,-,-,20050000,-,-,-
968,s,c,ijHtWXr,EXE,16,2,-,-,20050000,-,-,-
969,s,c,ijyrfBOVzH                                     @@@@@@@@@@@@@@@ @@,EHXEX,14,1,-,-,20050000,35.67064,139.746602,00001B000000000309CC17A661EEFFC0
970,s,c,rwzECH,EHXEX,36,3,-,-,20050000,-,-,-
971,s,c,ij_cOv                                   @@@@@@@@@@@@@@@ @,WicjE,14,1,-,-,20050000,-,-,-
972,s,,(jznTJr,,8,0,-,-,20050000,-,-,-
973,s,`,ijT|QXn][Jv,E,24,2,-,-,20050000,-,-,-
974,s,`,[hkRrVzHij,EX,15,2,-,-,20050000,35.666834,139.713437,00001B000000000309CBD3265F99FFC0
975,s,`,ijkRvWFNg                                     @@@@@@@@@@@@@@@ @@,EXEHXEEH,25,3,-,-,20050000,-,-,-
976,s,`,ij~bh^EvWFNgADEp                                     @@@@@@@@@@@@@@@ @@,p,54,5,-,-,20050000,35.665814,139.731062,00001B000000000309CBC0A660D77FC0
977,s,Vh,VhZuVeBnv,,26,2,-,-,20050000,-,-,-
978,s,c,`iHcjQq^[~irzH,`,9,0,-,-,20050000,35.550176,139.788733,00001B000000000309C39F2664E57FC0
979,s,aJ,ijzeT[gVhVzH,ze,14,1,-,-,20050000,35.698684,139.707954,00001B000000000309CE10265F377FC0
980,s,,ij]cX{,{,7,1,-,-,20050000,35.729728,139.66562,00001B000000000309D03F265C3D7FC0
981,s,L,ijwrLpX,wZiwj,10,1,-,-,20050000,35.73303,139.719271,00001B000000000309D07AA66002FFC0
982,s,n,na@,a@,5,1,-,-,20050000,35.733639,139.677042,00001B000000000309D085A65D0AFFC0
983,s,,i)VVbsOZ^[,{,6,1,-,-,20050000,35.777267,139.789961,00001B000000000309D396A664FB7FC0
984,s,,T~bgXgAOX,iXE,4,0,-,-,20050000,35.741719,139.846072,00001B000000000309D116A668ED7FC0
985,s,cs,a@,a@,1,6,-,-,20050000,35.598377,139.389102,00001B000000000309C702A648CBFFC0
986,s,cs,cnre[Va@,a@EVl{EZ,1,4,-,-,20050000,-,-,-
987,s,Rs,nZa,,2,0,-,-,20050000,35.767578,139.500229,00001B000000000309D2E826509C7FC0
988,s,h1-31-7-5-6,,X,2,0,1,-,20051107,35.681522,139.394395,00001B000000000309CCDB26492B7FC0
989,s,,(j,,7,0,-,-,20060000,35.681185,139.782662,00001B000000000309CCD5266477FFC0
990,s,`,r,,9,0,-,-,20060000,-,-,-
991,s,Vh,ijlJPv,zeZ睽X,11,1,-,-,20060000,-,-,-
992,s,Vh,ijQzev,ze,10,0,-,-,20060000,-,-,-
993,s,nc,nc,,6,1,-,-,20060000,35.698295,139.818275,00001B000000000309CE092666F8FFC0
994,s,nc,sa@,a@,5,1,-,-,20060000,35.720588,139.822172,00001B000000000309CF9AA6673F7FC0
995,s,],p[NTChT,qx{,4,0,-,-,20060000,35.707021,139.819964,00001B000000000309CEA62667177FC0
996,s,],T,Vlx{,6,0,-,-,20060000,-,-,-
997,s,,a@,a@,4,0,-,-,20060000,35.708787,139.667351,00001B000000000309CEC6265C5C7FC0
998,s,,iji[VOz[,Vl伟,3,0,-,-,20060000,35.714845,139.656887,00001B000000000309CF33265B9FFFC0
999,s,k,wZ@lHwZ,h,5,1,-,-,20060000,35.755454,139.733919,00001B000000000309D20E26610AFFC0
1000,s,k,a@,a@,5,1,-,-,20060000,35.78428,139.703228,00001B000000000309D415265EE27FC0
1001,s,n,ijQn,{Vlz[,3,0,-,-,20060000,35.747388,139.630332,00001B000000000309D17CA659C1FFC0
1002,s,],Fr,Vlz[z[,3,0,-,-,20060000,-,-,-
1003,s,],ijNjbN]VzH,f,4,0,-,-,20060000,35.668649,139.856134,00001B000000000309CBF3A669A27FC0
1004,s,c,OLOa@,a@,19,2,-,-,20060000,35.700097,139.779391,00001B000000000309CE29A6643D7FC0
1005,s,c,mv,Ea@,14,2,-,-,20060000,-,-,-
1006,s,c,_c{cv,EZ,19,2,-,-,20060000,-,-,-
1007,s,c,() cRrVzH,W,13,1,-,-,20060000,-,-,-
1008,s,c,SFv,X堀X|[cK,34,4,-,-,20060000,-,-,-
1009,s,c,()nJ,X,38,4,-,-,20060000,-,-,-
1010,s,c,()Htv,z[,19,3,-,-,20060000,-,-,-
1011,s,,() {RvWFNg,T[rXcX,11,1,-,-,20060000,-,-,-
1012,s,,()l{v,{,21,2,-,-,20060000,-,-,-
1013,s,`,YOvBX,Eze,19,2,-,-,20060000,-,-,-
1014,s,`,(jVlv,,16,1,-,-,20060000,-,-,-
1015,s,`,() ROv,X,9,1,-,-,20060000,-,-,-
1016,s,Vh,VhVnv,CwZX堀z[,50,4,-,-,20060000,-,-,-
1017,s,Vh,(jrrv,,10,1,-,-,20060000,-,-,-
1018,s,Vh,VhVrv,EZ,33,2,-,-,20060000,-,-,-
1019,s,Vh,VhZUn@sXnJ{z,Z睽X,46,2,-,-,20060000,-,-,-
1020,s,,{wbww@,w,4,2,-,-,20060000,-,-,-
1021,s,,ynsXnJv,Z睽X堀W,34,3,-,-,20060000,-,-,-
1022,s,,ijVa@                                    @@@@@@@@@@@@@@@ @,a@Vl{荪nxZ^[,8,1,-,-,20060000,35.722799,139.792633,00001B000000000309CFC226652B7FC0
1023,s,],ijLFQ6X{                                     @@@@@@@@@@@@@@@ @@,X,5,1,-,-,20060000,-,-,-
1024,s,],ijLFSX{                                     @@@@@@@@@@@@@@@ @@,X,5,1,-,-,20060000,-,-,-
1025,s,],()VO{VzH,X堀HX,7,0,-,-,20060000,-,-,-
1026,s,],()_v,X,10,0,-,-,20060000,-,-,-
1027,s,i,O1vWFNg,EX,12,2,-,-,20060000,-,-,-
1028,s,,()tOv,Z,33,3,-,-,20060000,-,-,-
1029,s,c,^[~iwij,Sw丧HXX,3,2,-,-,20060000,-,-,-
1030,s,cJ,wOwrv,X,4,1,-,-,20060000,-,-,-
1031,s,cJ,mw@cJE~uLpX@n,wZ,10,1,-,-,20060000,35.648139,139.653136,00001B000000000309CA82A65B5C7FC0
1032,s,aJ,{\Lnv,a@,13,3,-,-,20060000,35.654415,139.717786,00001B000000000309CAF3265FE87FC0
1033,s,,wLpXia@j,a@,19,2,-,-,20060000,35.759506,139.715798,00001B000000000309D257265FC47FC0
1034,s,,wLpXiwj,w,11,3,-,-,20060000,35.758962,139.713927,00001B000000000309D24D265FA2FFC0
1035,s,Rs,_ChVeB[ERVbsOZ^[,X@f,5,0,-,-,20060000,35.746746,139.384991,00001B000000000309D171264881FFC0
1036,s,Rs,RwnsXnJ{z,ZEXEEv{,27,1,-,-,20060000,-,-,-
1037,s,~s,JCYz[~I.CX,X,2,0,-,-,20060000,35.792749,139.314948,00001B000000000309D4AD2643957FC0
1038,s,o,CIoS.C,X,4,0,-,-,20060000,35.73506,139.276465,00001B000000000309D09F2640E07FC0
1039,s,c,J,s,9,1,-,-,20070000,-,-,-
1040,s,,(j{{v,X,9,0,-,-,20070000,-,-,-
1041,s,,ijVEr,HX,7,2,-,-,20070000,35.674098,139.782122,00001B000000000309CC55A6646E7FC0
1042,s,`,()v,X堀,13,2,-,-,20070000,-,-,-
1043,s,c,TS-1r,X,2,0,-,-,20070000,35.569072,139.734946,00001B000000000309C4F326611D7FC0
1044,s,cJ,qn1sXnJ@UX,Xr,3,1,-,-,20070000,-,-,-
1045,s,aJ,v,,10,1,-,-,20070000,-,-,-
1046,s,aJ,J4r,X堀,8,0,-,-,20070000,-,-,-
1047,s,,O_,Vlz[,2,0,-,-,20070000,35.718965,139.59538,00001B000000000309CF7D26574CFFC0
1048,s,n,@lc@z,a@,3,1,-,-,20070000,35.761084,139.60302,00001B000000000309D273A657D67FC0
1049,s,,()CtX,icX,2,-,-,-,20070000,35.764479,139.770127,00001B000000000309D2B0A663967FC0
1050,s,c,ijOv,X,15,1,-,-,20070000,-,-,-
1051,s,c,nsXnJ,X,24,2,-,-,20070000,-,-,-
1052,s,c,ijnv,WT[rXX,23,4,-,-,20070000,-,-,-
1053,s,c,ijxM[gv,,13,2,-,-,20070000,35.685095,139.735866,00001B000000000309CD1BA6612DFFC0
1054,s,c,icvVzH,ze,28,5,-,-,20070000,-,-,-
1055,s,,ij{{r,T[rXX堀iX,11,2,-,-,20070000,35.681702,139.772708,00001B000000000309CCDEA663C4FFC0
1056,s,`,ijYLpXVwVzH,w,8,1,-,-,20070000,35.643411,139.749675,00001B000000000309CA2D2662267FC0
1057,s,`,ijvWFNg,X,21,2,-,-,20070000,-,-,-
1058,s,`,CwLpXv,w,7,2,-,-,20070000,-,-,-
1059,s,`,ijRrVzH,X,9,1,-,-,20070000,-,-,-
1060,s,],ijVZgrVzH,,6,0,-,-,20070000,35.643733,139.827457,00001B000000000309CA3326679E7FC0
1061,s,i,ijvWFNg,X,17,2,-,-,20070000,-,-,-
1062,s,i,ijiqnv,,11,1,-,-,20070000,-,-,-
1063,s,c,`nq^[~ir,`q^[~i,5,0,-,-,20070000,35.550005,139.786463,00001B000000000309C39C2664BC7FC0
1064,s,c,`n`pp,`{(),7,0,-,-,20070000,35.550616,139.784442,00001B000000000309C3A7266497FFC0
1065,s,cJ,qnsXnJ,icX堀HX,16,2,-,-,20070000,-,-,-
1066,s,cJ,ijjQv,icX,3,0,-,-,20070000,-,-,-
1067,s,aJ,ijaJv,Z睽W,25,3,-,-,20070000,-,-,-
1068,s,s,ijt@[ 7-4Xv,X堀,11,1,-,-,20070000,-,-,-
1069,s,s,s,isj,4,1,-,-,20070000,35.714014,139.407843,00001B000000000309CF24264A1D7FC0
1070,s,cs,恫萁尬把cX,iX,1,0,-,-,20070000,35.601446,139.374766,00001B000000000309C73A2647C9FFC0
1071,s,Rs,[N}[gRX,iX,2,0,-,-,20070000,35.757011,139.486143,00001B000000000309D22A264F9EFFC0
1072,s,vs,FucnX,iX,1,0,-,-,20070000,35.747511,139.535991,00001B000000000309D17F26531FFFC0
1073,s,,(j{v,,8,0,-,-,20080000,-,-,-
1074,s,c,JALUXObh^Cz[E,Vlz[,4,0,-,-,20080000,35.543426,139.704401,00001B000000000309C325A65EF77FC0
1075,s,cJ,ownJCH{VH,iX,2,0,-,-,20080000,-,-,-
1076,s,aJ,bwOv,,10,0,-,-,20080000,-,-,-
1077,s,aJ,aJuv,"
X",10,1,-,-,20080000,-,-,-
1078,s,,()vWFNg,X(i),2,1,-,-,20080000,-,-,-
1079,s,n,ijr,X,2,0,-,-,20080000,35.73716,139.576464,00001B000000000309D0C4A655F87FC0
1080,s,n,ij_{,a@f,5,1,-,-,20080000,-,-,-
1081,s,n,ijG_[rbWn,a@,5,0,-,-,20080000,-,-,-
1082,s,,()Mqr,icX,2,0,-,-,20080000,35.783897,139.845578,00001B000000000309D40E2668E47FC0
1083,s,c,Ov,,17,1,-,-,20080000,-,-,-
1084,s,c,(jSArv,HXicX堀W,21,2,-,-,20080000,-,-,-
1085,s,c,ijxmv,,14,1,-,-,20080000,-,-,-
1086,s,c,ijVrv,X堀W,27,5,-,-,20080000,-,-,-
1087,s,,(jOz@f|Sv,SX,13,6,-,-,20080000,-,-,-
1088,s,,(jjbZCa{r,T[rXX,12,2,-,-,20080000,35.679391,139.772277,00001B000000000309CCB52663BCFFC0
1089,s,,ij{r,X,21,5,-,-,20080000,35.683774,139.775639,00001B000000000309CD03A663F9FFC0
1090,s,,ijnJviQ|QXj,X堀,22,4,-,-,20080000,-,-,-
1091,s,`,(jViJ,X堀{荪c,19,3,-,-,20080000,-,-,-
1092,s,`,ijjvWFNg,EX,30,3,-,-,20080000,-,-,-
1093,s,`,ijv(g),Z睽X,22,1,-,-,20080000,-,-,-
1094,s,`,ijOcvWFNg,X,15,2,-,-,20080000,-,-,-
1095,s,`,()mPv,X,10,0,-,-,20080000,-,-,-
1096,s,`,()w@Oca@,a@,11,2,-,-,20080000,35.653885,139.74249,00001B000000000309CAE9A661A4FFC0
1097,s,`,()vWFNg,X,23,1,-,-,20080000,-,-,-
1098,s,Vh,ijkVhnJv@,X堀f,35,2,-,-,20080000,-,-,-
1099,s,Vh,ijVhqnJ,W辚X,40,3,-,-,20080000,-,-,-
1100,s,Vh,ijcnOvWFNg,s,11,2,-,-,20080000,-,-,-
1101,s,nc,ijnJviV^[vj,dg()W辚X,31,3,-,-,20080000,-,-,-
1102,s,nc,ijnc,,5,0,-,-,20080000,35.699525,139.817187,00001B000000000309CE1F2666E57FC0
1103,s,],[MUA~nJv(jvQ,X,10,0,-,-,20080000,-,-,-
1104,s,],(jLFTvWFNg,X,13,0,-,-,20080000,-,-,-
1105,s,],tWNMUAanija,,10,0,-,-,20080000,-,-,-
1106,s,],ijLFR|PX@rv,X,15,2,-,-,20080000,-,-,-
1107,s,],ijLfPvWFNg,X,13,1,-,-,20080000,-,-,-
1108,s,],LFO3-3XvijscvWFNg,X,14,1,-,-,20080000,-,-,-
1109,s,],ijLvWFNg,W辚X堀{,22,1,-,-,20080000,-,-,-
1110,s,],() wn{(TXj,X|[cK辚,5,0,-,-,20080000,-,-,-
1111,s,],() wn{(UXj,icX堀HX,4,0,-,-,20080000,-,-,-
1112,s,i,()eNmW[Z^[,X,25,2,-,-,20080000,35.617275,139.728401,00001B000000000309C856A660A77FC0
1113,s,i,()aRvWFNg,X,9,1,-,-,20080000,-,-,-
1114,s,c,(jc,,2,2,-,-,20080000,35.56435,139.728002,00001B000000000309C49E2660A07FC0
1115,s,cJ,qnsXnJiPXj,icX,8,1,-,-,20080000,-,-,-
1116,s,aJ,(jv,W,22,2,-,-,20080000,-,-,-
1117,s,aJ,ijaJQPnJv,辚HX堀X,34,4,-,-,20080000,-,-,-
1118,s,,(jwwZLpX(~nPj,wZ(wjf,6,0,-,-,20080000,35.753472,139.789273,00001B000000000309D1EA2664EEFFC0
1119,s,,()CtV{X,icX堀HX,3,0,-,-,20080000,35.781134,139.772452,00001B000000000309D3DC2663C07FC0
1120,s,qs,,X,2,0,-,-,20080000,35.672682,139.329208,00001B000000000309CC3C264495FFC0
1121,s,s,Op[Nr,X,3,0,-,-,20080000,35.714104,139.562341,00001B000000000309CF25A654FA7FC0
1122,s,{s,,icX,2,0,-,-,20080000,35.684948,139.497189,00001B000000000309CD192650657FC0
